stop_id,stop_code,stop_name,stop_desc,stop_lat,stop_lon,zone_id,stop_url,location_type,parent_station,stop_timezone,wheelchair_boarding
02:00007,02:00007,"BOURG ET C. - ABRI","",49.39695,3.65725,,,0,,,
02:00010,02:00010,"SOUPIR - ABRI","",49.40627,3.59535,,,0,,,
02:00011,02:00011,"CYS LA C. - MAIRIE","",49.39263,3.57062,,,0,,,
02:00012,02:00012,"PRESLES ET B. - ABRI MAIRIE","",49.39361,3.55887,,,0,,,
02:00014,02:00014,"PRESLES ET B. - ST AUDEBERT ABRI","",49.39776,3.53445,,,0,,,
02:00015,02:00015,"PRESLES ET B. - CROIX ST THOMAS","",49.39655,3.52817,,,0,,,
02:00016,02:00016,"PRESLES ET B. - PONT DE VAILLY","",49.40113,3.51635,,,0,,,
02:00019,02:00019,"AIZY JOUY - MAIRIE ECOLE ABRI","",49.43617,3.51461,,,0,,,
02:00023,02:00023,"CONDE S/ A. - GARE","",49.40128,3.4762,,,0,,,
02:00024,02:00024,"CONDE S/ A. - ABRI","",49.39734,3.46933,,,0,,,
02:00025,02:00025,"MISSY S/ A. - CAFE","",49.38669,3.43593,,,0,,,
02:00027,02:00027,"BUCY LE L. - STE MARGUERITE","",49.39029,3.41339,,,0,,,
02:00029,02:00029,"BUCY LE L. - CREPERIE","",49.38962,3.39877,,,0,,,
02:00030,02:00030,"BUCY LE L. - CAFE TABAC","",49.39093,3.39253,,,0,,,
02:00031,02:00031,"BUCY LE L. - DISTILLERIE","",49.39422,3.36928,,,0,,,
02:00034,02:00034,"SOISSONS - GARE SNCF","",49.36991,3.33725,,,0,,,
02:00035,02:00035,"SOISSONS - LE CORBUSIER CITE SCOL","",49.36417,3.31552,,,0,,,
02:00038,02:00038,"CHAVONNE - ABRI","",49.40337,3.57306,,,0,,,
02:00039,02:00039,"BUCY LE L. - LE MONCEL","",49.39044,3.40566,,,0,,,
02:00040,02:00040,"LAON - COLL. J. MERMOZ","",49.56595,3.5937,,,0,,,
02:00042,02:00042,"LAON - LY PIERRE MECHAIN","",49.56182,3.63762,,,0,,,
02:00043,02:00043,"LAON - COLL.CHARLEMAGNE","",49.56187,3.6419,,,0,,,
02:00044,02:00044,"LAON - GARE ROUTIERE","",49.56995,3.62571,,,0,,,
02:00046,02:00046,"LAON - LY. PAUL CLAUDEL","",49.56454,3.60901,,,0,,,
02:00047,02:00047,"LAON - COLL LENAIN","",49.56178,3.61134,,,0,,,
02:00062,02:00062,"COUVRON ET A. -  ABRI GRAND PLACE","",49.64163,3.51553,,,0,,,
02:00066,02:00066,"NOUVION ET C-PT A BUCY 4 PONCEAUX","",49.69037,3.48518,,,0,,,
02:00067,02:00067,"NOUVION LE C. - ABRI ECOLE","",49.69942,3.4614,,,0,,,
02:00068,02:00068,"NOUVION ET C. - FACE ABRI","",49.70299,3.4815,,,0,,,
02:00069,02:00069,"RIBEMONT - COLLEGE","",49.80067,3.46713,,,0,,,
02:00084,02:00084,"ST QUENTIN - LYCEE CONDORCET","",49.86025,3.29454,,,0,,,
02:00088,02:00088,"ST ALGIS -  CALVAIRE ABRI","",49.90137,3.82027,,,0,,,
02:00095,02:00095,"GERGNY - ARRET","",49.91492,3.93368,,,0,,,
02:00103,02:00103,"HIRSON - GARE ROUTIERE","",49.93047,4.07691,,,0,,,
02:00104,02:00104,"HIRSON - ENFANT JESUS","",49.92182,4.0792,,,0,,,
02:00107,02:00107,"HIRSON - COLLEGE G.COBAST","",49.92352,4.09415,,,0,,,
02:00111,02:00111,"LATILLY - ABRI","",49.15493,3.3111,,,0,,,
02:00112,02:00112,"LATILLY - MAIRIE ECOLE","",49.15481,3.31089,,,0,,,
02:00115,02:00115,"BUIRE -  VILLAGE ABRI","",49.90345,4.05621,,,0,,,
02:00116,02:00116,"EPAUX BEZU - PLACE DE L'EUROPE","",49.10909,3.34639,,,0,,,
02:00118,02:00118,"BEZU ST G. - BEZUET","",49.0869,3.39737,,,0,,,
02:00120,02:00120,"CHATEAU T. - LES CHESNEAUX","",49.05306,3.39697,,,0,,,
02:00129,02:00129,"NEUILLY ST F. - ABRI RASSY","",49.15411,3.26979,,,0,,,
02:00133,02:00133,"COURCHAMPS - FACE ABRI PLACE","",49.11273,3.2645,,,0,,,
02:00139,02:00139,"NOGENT L A. - LA GENESTRE ABRI","",48.94499,3.3511,,,0,,,
02:00140,02:00140,"NOGENT L A. - CHEROST CENTRE","",48.94575,3.35557,,,0,,,
02:00142,02:00142,"LA CHAPELLE S. - CAQUETONS ABRI","",48.94671,3.39224,,,0,,,
02:00144,02:00144,"VIELS MAISONS - PLACE","",48.89599,3.39711,,,0,,,
02:00146,02:00146,"L EPINE AUX B. - LA HAUTE EPINE","",48.89557,3.44529,,,0,,,
02:00156,02:00156,"CHEZY S/ M. - PL. DE LA MAIRIE","",48.98909,3.36635,,,0,,,
02:00158,02:00158,"NOGENTEL - LA BARONNE","",49.02055,3.40517,,,0,,,
02:00159,02:00159,"MONTREUIL AUX L - PLACE MAIRIE","",49.02183,3.1947,,,0,,,
02:00160,02:00160,"MARIGNY EN O. - CORMONT","",49.05505,3.22066,,,0,,,
02:00164,02:00164,"ESSOMES S/ M. - LE THIOLET ABRI","",49.03961,3.31552,,,0,,,
02:00165,02:00165,"ESSOMES S/ M. - CROGIS","",49.02539,3.34864,,,0,,,
02:00167,02:00167,"ESSOMES S/ M. - 43B RUE FOURRIER","",49.02986,3.3665,,,0,,,
02:00168,02:00168,"CHATEAU T. - CASTEL REPOS ABR.","",49.03965,3.38656,,,0,,,
02:00170,02:00170,"CHATEAU T. - LA POSTE","",49.04416,3.39938,,,0,,,
02:00176,02:00176,"HARTENNES ET T. - FACE ABRI PLACE","",49.26984,3.35336,,,0,,,
02:00178,02:00178,"OULCHY LA V. - ABRI PLACE","",49.21329,3.35066,,,0,,,
02:00188,02:00188,"BEZU ST G. - PLACE MAIRIE ABRI","",49.10829,3.40873,,,0,,,
02:00190,02:00190,"CHATEAU T. - LYCEE LA FONTAINE","",49.05169,3.38667,,,0,,,
02:00191,02:00191,"CHATEAU T. - CES JEAN ROSTAND","",49.05915,3.38407,,,0,,,
02:00193,02:00193,"CHATEAU T. - CITE TECH J.VERNE","",49.05304,3.40015,,,0,,,
02:00194,02:00194,"CHATEAU T. - GARE SNCF","",49.03827,3.40925,,,0,,,
02:00195,02:00195,"CHATEAU T. - PLACE THIERS","",49.04261,3.4012,,,0,,,
02:00197,02:00197,"COINCY  - ABRI MAIRIE","",49.16061,3.42117,,,0,,,
02:00204,02:00204,"ARCY STE R. - SERVENAY","",49.24216,3.4414,,,0,,,
02:00206,02:00206,"ARCY STE R. - BRANGES","",49.2667,3.49991,,,0,,,
02:00221,02:00221,"CELLES LES C. - FACE ABRI","",49.01174,3.57093,,,0,,,
02:00223,02:00223,"CONNIGIS - PLACE","",49.03201,3.53145,,,0,,,
02:00228,02:00228,"MEZY MOULINS - MOULINS","",49.05932,3.5211,,,0,,,
02:00229,02:00229,"MEZY MOULINS - X RUE MOULINS/GARE","",49.06641,3.50532,,,0,,,
02:00233,02:00233,"FOSSOY - LA BADELLE","",49.05488,3.48596,,,0,,,
02:00241,02:00241,"CONDE EN B. - COLLEGE","",49.00541,3.55229,,,0,,,
02:00242,02:00242,"ST EUGENE - PLACE ECOLE","",49.0227,3.53118,,,0,,,
02:00244,02:00244,"CREZANCY - LYCEE AGRICOLE","",49.04901,3.50972,,,0,,,
02:00245,02:00245,"REUILLY S. - ABRI","",49.0579,3.55699,,,0,,,
02:00246,02:00246,"REUILLY S. - SAUVIGNY","",49.05453,3.57596,,,0,,,
02:00256,02:00256,"CONDE EN B. - ECOLE PRIMAIRE","",49.00452,3.55608,,,0,,,
02:00261,02:00261,"AMBLENY - LE SOULIER","",49.38202,3.20102,,,0,,,
02:00263,02:00263,"ST BANDRY - PLACE DE L'EGLISE","",49.37127,3.16989,,,0,,,
02:00264,02:00264,"ST BANDRY - COURTANSON","",49.36649,3.17468,,,0,,,
02:00279,02:00279,"VILLERS C. - GRAND BOSQUET","",49.25477,3.09286,,,0,,,
02:00293,02:00293,"DAMPLEUX - PLACE ABRI","",49.24413,3.15223,,,0,,,
02:00295,02:00295,"FAVEROLLES - VOUTY ABRI PLACE","",49.23167,3.17775,,,0,,,
02:00298,02:00298,"LOUATRE - VIOLAINE","",49.2631,3.23878,,,0,,,
02:00304,02:00304,"DOMMIERS - ABRI MAIRIE ECOLE","",49.32862,3.21274,,,0,,,
02:00315,02:00315,"LA FERE - PONT DE L'OISE","",49.65996,3.37195,,,0,,,
02:00318,02:00318,"LA FERE - COLLEGE MARIE DE LUXEMB","",49.66421,3.36309,,,0,,,
02:00348,02:00348,"ST QUENTIN - GARE ROUTIERE","",49.84094,3.29832,,,0,,,
02:00356,02:00356,"MONT D O. - ABRI","",49.84253,3.50053,,,0,,,
02:00376,02:00376,"GUISE - ECOLE DU CENTRE","",49.89813,3.62812,,,0,,,
02:00377,02:00377,"GUISE - JEANNE D'ARC","",49.90242,3.62605,,,0,,,
02:00378,02:00378,"GUISE - LYCEE FRANCOISE DOLTO","",49.90415,3.6384,,,0,,,
02:00379,02:00379,"GUISE - COLL. CAMILLE DESMOULINS","",49.9038,3.63514,,,0,,,
02:00383,02:00383,"ORIGNY STE B. - X ST GERMAIN","",49.83621,3.49595,,,0,,,
02:00393,02:00393,"GUISE - PLACE LESUR","",49.89853,3.62782,,,0,,,
02:00398,02:00398,"ST QUENTIN - LYCEE COLARD NOEL","",49.86291,3.30809,,,0,,,
02:00401,02:00401,"RENANSART - ABRI FACE MAIRIE","",49.73487,3.46297,,,0,,,
02:00402,02:00402,"SURFONTAINE - EGLISE","",49.75059,3.46555,,,0,,,
02:00408,02:00408,"THENELLES -FACE ABRI EGLISE","",49.83224,3.46974,,,0,,,
02:00409,02:00409,"REGNY - ABRI","",49.82928,3.42882,,,0,,,
02:00411,02:00411,"ST QUENTIN - RUE H.DUNANT","",49.8545,3.30495,,,0,,,
02:00426,02:00426,"NEUVILLE ST A. - MAIRIE ECOLE","",49.8256,3.33191,,,0,,,
02:00438,02:00438,"RIBEMONT - LUCY ABRI","",49.80851,3.47636,,,0,,,
02:00440,02:00440,"MONT D O. - FACE ABRI","",49.84245,3.50049,,,0,,,
02:00444,02:00444,"THENELLES - PLACE ABRI","",49.83009,3.46777,,,0,,,
02:00447,02:00447,"MARCY - ABRI","",49.85032,3.40417,,,0,,,
02:00456,02:00456,"CHAOURSE - MOULIN DE JEUNE","",49.70924,3.98713,,,0,,,
02:00457,02:00457,"AGNICOURT ET S. - SECHELLES ABRI","",49.71324,3.97759,,,0,,,
02:00461,02:00461,"TAVAUX ET P. - ABRI 1 R.DE MALAIS","",49.7299,3.90952,,,0,,,
02:00463,02:00463,"TAVAUX ET P. - FACE ABRI EGL PONT","",49.72422,3.90782,,,0,,,
02:00464,02:00464,"TAVAUX ET P. - X DE L'ESPERANCE","",49.7061,3.91179,,,0,,,
02:00469,02:00469,"CUIRIEUX - ABRI","",49.68173,3.81499,,,0,,,
02:00472,02:00472,"MONCEAU LE W. - ABRI","",49.61919,3.71448,,,0,,,
02:00476,02:00476,"NOYALES - PLACE ABRI","",49.89848,3.55484,,,0,,,
02:00477,02:00477,"VADENCOURT - BOHERIES ABRI","",49.91593,3.57319,,,0,,,
02:00480,02:00480,"AUDIGNY - LA DESOLATION","",49.87441,3.63029,,,0,,,
02:00485,02:00485,"LAON - INSTITUTION  LA PROVIDENCE","",49.56298,3.62173,,,0,,,
02:00501,02:00501,"BOIS LES P. - ABRI RUE M. CARLIER","",49.73099,3.64848,,,0,,,
02:00509,02:00509,"LANDIFAY ET B. - ABRI RUE EGLISE","",49.81683,3.60548,,,0,,,
02:00514,02:00514,"PUISIEUX ET C. - ABRI","",49.85317,3.67785,,,0,,,
02:00516,02:00516,"BARENTON CEL - ARRET SCOLAIRE","",49.64369,3.65501,,,0,,,
02:00517,02:00517,"BARENTON BUGNY - ARRET EGLISE","",49.63496,3.65069,,,0,,,
02:00519,02:00519,"GRAND VERLY - ABRI","",49.93806,3.58323,,,0,,,
02:00523,02:00523,"MENNEVRET - RTE DE WASSIGNY","",49.98524,3.55563,,,0,,,
02:00525,02:00525,"ETREUX - ABRI S.POLYVA.","",49.98986,3.65483,,,0,,,
02:00534,02:00534,"LANISCOURT - ABRI EGLISE","",49.54878,3.54211,,,0,,,
02:00540,02:00540,"FAUCOUCOURT - MAIRIE","",49.53481,3.46479,,,0,,,
02:00541,02:00541,"SUZY - ABRI","",49.55045,3.46756,,,0,,,
02:00542,02:00542,"PREMONTRE - RUE DES CHASSEURS","",49.53883,3.41553,,,0,,,
02:00543,02:00543,"PREMONTRE - ABRI SQUARE MAIRIE","",49.54174,3.41166,,,0,,,
02:00550,02:00550,"ST GOBAIN - EC. MATERNELLE","",49.59635,3.37941,,,0,,,
02:00552,02:00552,"BARISIS AUX B. - PLACE","",49.57842,3.32783,,,0,,,
02:00559,02:00559,"CHAUNY - GARE SNCF","",49.61157,3.22385,,,0,,,
02:00560,02:00560,"CHAUNY - PLACE BOUZIER","",49.61692,3.21402,,,0,,,
02:00570,02:00570,"FAUCOUCOURT - FERME MANNEUX","",49.54179,3.49223,,,0,,,
02:00571,02:00571,"CLACY ET T. - FERME DE THIERRET","",49.55236,3.5554,,,0,,,
02:00579,02:00579,"TRUCY - MAIRIE","",49.4712,3.61051,,,0,,,
02:00581,02:00581,"COLLIGIS C. - COLLIGIS PLACE ABRI","",49.47553,3.64021,,,0,,,
02:00589,02:00589,"ETOUVELLES - MAIRIE","",49.5217,3.58149,,,0,,,
02:00605,02:00605,"BOHAIN EN V. - COLLEGE H. MATISSE","",49.98526,3.4567,,,0,,,
02:00606,02:00606,"BOHAIN EN V. - ECOLE BERTHELOT","",49.9881,3.45517,,,0,,,
02:00607,02:00607,"BOHAIN EN V. - EC.CHENE BRULE","",49.98911,3.45681,,,0,,,
02:00608,02:00608,"BOHAIN EN V. - MAT ALAVOINE","",49.98871,3.45014,,,0,,,
02:00609,02:00609,"BOHAIN EN V. - 24 RUE FAGARD","",49.98749,3.45364,,,0,,,
02:00610,02:00610,"BOHAIN EN V. - ABRI GARE SNCF","",49.9881,3.44327,,,0,,,
02:00613,02:00613,"BOHAIN EN V. - 30 RUE J. MOULIN","",49.98168,3.45871,,,0,,,
02:00627,02:00627,"COURBES - ABRI MAIRIE","",49.6848,3.45202,,,0,,,
02:00660,02:00660,"HINACOURT - FACE ABRI","",49.74522,3.29564,,,0,,,
02:00662,02:00662,"CERIZY - PLACE","",49.76069,3.32929,,,0,,,
02:00668,02:00668,"BRANCOURT EN L. - EGLISE ABRI","",49.51547,3.41834,,,0,,,
02:00670,02:00670,"ANIZY LE G. - ABRI COTE EGLISE","",49.50479,3.45248,,,0,,,
02:00672,02:00672,"PINON - FACE ABRI PL. CH. DE GAUL","",49.48799,3.44759,,,0,,,
02:00677,02:00677,"LAFFAUX - ABRI VILLAGE","",49.44891,3.42564,,,0,,,
02:00683,02:00683,"VERVINS - PLACE DU PALAIS","",49.834,3.90949,,,0,,,
02:00686,02:00686,"LA VALLEE A. - ABRI PLACE HLM","",49.8543,3.78145,,,0,,,
02:00701,02:00701,"PLOMION - LA NIGAUDIERE","",49.83064,4.03497,,,0,,,
02:00706,02:00706,"ORIGNY EN T. - FACE ABRI MAIRIE","",49.89527,4.01771,,,0,,,
02:00712,02:00712,"CLAIRFONTAINE - R. PARIS ANC.GARE","",49.96574,3.97081,,,0,,,
02:00713,02:00713,"LA CAPELLE - COLLEGE","",49.97481,3.92094,,,0,,,
02:00719,02:00719,"ESQUEHERIES - LE GRAND WEZ ABRI","",49.9822,3.77898,,,0,,,
02:00725,02:00725,"FROIDESTREES - FACE ABRI 32 RN2","",49.944,3.90531,,,0,,,
02:00731,02:00731,"ETREUX - FACE ABRI C. DE GAULLE","",49.99691,3.66392,,,0,,,
02:00732,02:00732,"ETREUX - FACE COOP AGRI.","",49.99192,3.65416,,,0,,,
02:00734,02:00734,"VENEROLLES - ABRI","",49.98432,3.63862,,,0,,,
02:00735,02:00735,"HANNAPES - ABRI X D27/D66","",49.97338,3.62506,,,0,,,
02:00740,02:00740,"BOHAIN EN V. - PLACE THIERS","",49.98579,3.45843,,,0,,,
02:00746,02:00746,"TUPIGNY - CAFE","",49.95736,3.60666,,,0,,,
02:00747,02:00747,"MENNEVRET - ABRI EGLISE","",49.98383,3.55531,,,0,,,
02:00749,02:00749,"MONTIGNY EN A. - VILLAGE ABRI","",49.90533,3.47482,,,0,,,
02:00772,02:00772,"BERRY AU B. - ECOLE ABRI","",49.40357,3.90091,,,0,,,
02:00777,02:00777,"BEAURIEUX - PL. FRANCOIS 1ER","",49.3939,3.73971,,,0,,,
02:00808,02:00808,"VADENCOURT - LONGCHAMPS ABRI","",49.91649,3.56464,,,0,,,
02:00818,02:00818,"CHARTEVES - FACE ABRI","",49.07516,3.50358,,,0,,,
02:00820,02:00820,"MONT ST P. - ABRI DEMI LUNE","",49.07475,3.48865,,,0,,,
02:00824,02:00824,"GLAND - FRAICHE FONTAINE","",49.04622,3.4512,,,0,,,
02:00825,02:00825,"BRASLES - MAIRIE","",49.04788,3.42663,,,0,,,
02:00830,02:00830,"BARZY S/ M. - ABRI","",49.08685,3.55159,,,0,,,
02:00831,02:00831,"JAULGONNE - ABRI PLACE DU PUITS","",49.08824,3.53576,,,0,,,
02:00837,02:00837,"CHATEAU T. - PLACE LECLERC","",49.04211,3.40358,,,0,,,
02:00838,02:00838,"CHATEAU T. - PLACE PAUL DOUMER","",49.04059,3.40469,,,0,,,
02:00840,02:00840,"MONT ST P. - ECLUSE","",49.06944,3.48233,,,0,,,
02:00843,02:00843,"CIRY SALSOGNE - ECOLES","",49.3621,3.4649,,,0,,,
02:00846,02:00846,"SERMOISE - EGLISE","",49.37387,3.45184,,,0,,,
02:00848,02:00848,"AUGY - VILLAGE ABRI","",49.33826,3.51346,,,0,,,
02:00855,02:00855,"BAZOCHES S/ V. - PLACE","",49.30666,3.61828,,,0,,,
02:00863,02:00863,"WATIGNY - PLACE ABRI","",49.90353,4.19444,,,0,,,
02:00865,02:00865,"ST MICHEL - COQ HARDI ABRI","",49.91764,4.12817,,,0,,,
02:00866,02:00866,"ST MICHEL - ALOUETTE ABRI","",49.9148,4.1144,,,0,,,
02:00869,02:00869,"LOGNY LES A. - MAIRIE ABRI","",49.8278,4.21119,,,0,,,
02:00871,02:00871,"LEUZE - ECOLE","",49.85173,4.16147,,,0,,,
02:00872,02:00872,"MARTIGNY - ABRI","",49.85969,4.13766,,,0,,,
02:00883,02:00883,"CHAOURSE - ABRI RUE DES CHENES","",49.69893,3.99495,,,0,,,
02:00885,02:00885,"AGNICOURT ET S. - X RUE MORENZY","",49.72371,3.95833,,,0,,,
02:00886,02:00886,"ST PIERREMONT - ABRI","",49.72359,3.88051,,,0,,,
02:00888,02:00888,"BOSMONT S/ S. - PLACE","",49.73147,3.85823,,,0,,,
02:00890,02:00890,"MONTIGNY /S M. -FACE ABRI PL VERD","",49.74777,3.79123,,,0,,,
02:00894,02:00894,"CHATILLON LES S-ABRI 7 RUE EGLISE","",49.75977,3.68446,,,0,,,
02:00899,02:00899,"PLEINE SELVE - RUE DES BATISSEURS","",49.79268,3.52989,,,0,,,
02:00900,02:00900,"PLEINE SELVE - ABRI GRAND COURT","",49.79091,3.52544,,,0,,,
02:00913,02:00913,"STE PREUVE - FACE N°1 JARDINS","",49.61841,3.90802,,,0,,,
02:00925,02:00925,"BEUVARDES - ABRI PLACE","",49.1394,3.48775,,,0,,,
02:00926,02:00926,"BEUVARDES - LES TILLEULS","",49.13458,3.4853,,,0,,,
02:00929,02:00929,"VERDILLY - AUX COUPETTES","",49.06714,3.41826,,,0,,,
02:00930,02:00930,"BRASLES - BRIQUETTERIE","",49.05601,3.42192,,,0,,,
02:00939,02:00939,"MAAST ET V. - MAAST ABRI","",49.2836,3.44908,,,0,,,
02:00946,02:00946,"VERDILLY - PL. DE LA MAIRIE","",49.07246,3.4239,,,0,,,
02:00959,02:00959,"BRISSY H. - ABRI HAMEGICOURT","",49.74641,3.3798,,,0,,,
02:00961,02:00961,"ALAINCOURT - PLACE ABRI","",49.76554,3.37529,,,0,,,
02:00962,02:00962,"BERTHENICOURT - ABRI","",49.77249,3.38054,,,0,,,
02:00963,02:00963,"MEZIERES S/ O. - GARE","",49.77892,3.39017,,,0,,,
02:00967,02:00967,"BRUYERES S/ F. - TRUGNY","",49.19954,3.46136,,,0,,,
02:00968,02:00968,"CRAMAILLE - PLACE MAIRIE","",49.22991,3.45295,,,0,,,
02:00969,02:00969,"ARCY STE R. - PLACE ABRI","",49.25275,3.46374,,,0,,,
02:00970,02:00970,"ARCY STE R. - RUGNY ABRI","",49.24054,3.48061,,,0,,,
02:00971,02:00971,"SAPONAY - ABRI PLACE","",49.21458,3.4797,,,0,,,
02:00973,02:00973,"MAREUIL EN D. - ABRI","",49.24029,3.55672,,,0,,,
02:00974,02:00974,"COULONGES C. - COHAN ABRI","",49.2133,3.64054,,,0,,,
02:00978,02:00978,"VILLERS S/ F. - PLACE ABRI","",49.18288,3.53393,,,0,,,
02:00984,02:00984,"NESLES LA M. - NESLES NOUVEAU","",49.02454,3.41188,,,0,,,
02:00989,02:00989,"LA MALMAISON - FACE ABRI EGLISE","",49.51537,3.97996,,,0,,,
02:00990,02:00990,"PROVISEUX ET P. - MAIRIE","",49.46492,4.00929,,,0,,,
02:00991,02:00991,"PROUVAIS - ABRI","",49.46335,3.97575,,,0,,,
02:00994,02:00994,"EVERGNICOURT - MAIRIE ABRI","",49.44276,4.04143,,,0,,,
02:01025,02:01025,"HARY - PLACE","",49.78575,3.9334,,,0,,,
02:01030,02:01030,"COUCY LES E. - ABRI GARE","",49.55581,3.77415,,,0,,,
02:01041,02:01041,"VERVINS - PLACE SOHIER","",49.83531,3.90807,,,0,,,
02:01052,02:01052,"ANY MARTIN R. - MARTIN RIEUX ABRI","",49.88019,4.23659,,,0,,,
02:01053,02:01053,"ANY MARTIN R. - ANY ABRI","",49.88111,4.22088,,,0,,,
02:01056,02:01056,"VARISCOURT - MAIRIE","",49.41682,3.98566,,,0,,,
02:01057,02:01057,"CONDE S/ S. - PLACE MAIRIE","",49.41974,3.95085,,,0,,,
02:01058,02:01058,"CONDE S/ S. - SUCRERIE","",49.42601,3.95925,,,0,,,
02:01061,02:01061,"MENNEVILLE - ABRI","",49.41929,4.00693,,,0,,,
02:01087,02:01087,"VICHEL N. - NANTEUIL","",49.18754,3.31309,,,0,,,
02:01101,02:01101,"BILLY S/ O. - RUE DU VIVIER","",49.21596,3.30194,,,0,,,
02:01102,02:01102,"ST REMY B. - FACE ABRI PLACE","",49.24096,3.31003,,,0,,,
02:01107,02:01107,"GRAND ROZOY - MAIRIE","",49.23424,3.38406,,,0,,,
02:01108,02:01108,"LA FERTE C. - CHEVRESIS LES D.","",49.72361,3.53929,,,0,,,
02:01110,02:01110,"SEPTVAUX - MAIRIE","",49.5695,3.37792,,,0,,,
02:01118,02:01118,"VAUDESSON - VAURAINS ABRI","",49.456,3.48444,,,0,,,
02:01121,02:01121,"BOUE - RUE DE LA NATION","",50.00658,3.69321,,,0,,,
02:01123,02:01123,"AISONVILLE ET B - BERNOVILLE ABRI","",49.93072,3.51364,,,0,,,
02:01126,02:01126,"MONTLEVON - AUCLAINE","",48.96745,3.51905,,,0,,,
02:01130,02:01130,"CHIGNY - HAUT ABRI","",49.91774,3.76891,,,0,,,
02:01131,02:01131,"CHIGNY - BAS ABRI","",49.91359,3.77532,,,0,,,
02:01132,02:01132,"MARLY GOMONT - ABRI PLACE GOMONT","",49.89919,3.77469,,,0,,,
02:01136,02:01136,"WIEGE FATY - FATY ABRI","",49.89322,3.71214,,,0,,,
02:01142,02:01142,"CHERMIZY A. - ABRI MAIRIE","",49.46959,3.72582,,,0,,,
02:01147,02:01147,"MONTCHALONS - BOIS DE LA TOMBE","",49.50508,3.72044,,,0,,,
02:01153,02:01153,"EPIEDS - COURPOIL","",49.11629,3.4609,,,0,,,
02:01154,02:01154,"FERE EN T. - VILLEMOYENNE","",49.17689,3.5026,,,0,,,
02:01163,02:01163,"PONTAVERT - ABRI","",49.40742,3.8191,,,0,,,
02:01177,02:01177,"CIRY SALSOGNE - DOM. DES ETANGS","",49.37929,3.47418,,,0,,,
02:01180,02:01180,"BELLEU - COLLEGE","",49.36291,3.33719,,,0,,,
02:01183,02:01183,"ANY MARTIN R. - LA FOLIE ABRI","",49.90414,4.22254,,,0,,,
02:01191,02:01191,"LA SELVE - PLACE ABRI","",49.56991,3.99611,,,0,,,
02:01198,02:01198,"COUCY LES E. - CENTRE","",49.55259,3.7689,,,0,,,
02:01202,02:01202,"ESSOMES S/ M. - PLACE FERREOL","",49.02986,3.37509,,,0,,,
02:01213,02:01213,"VILLIERS ST D. - PL DU 11 NOVEMBR","",48.99469,3.26695,,,0,,,
02:01215,02:01215,"COUPRU - ARRET MAIRIE ABRI","",49.03171,3.27199,,,0,,,
02:01218,02:01218,"VEUILLY LA P. - ELOUP","",49.09021,3.2284,,,0,,,
02:01219,02:01219,"ESSOMES S/ M. - BASCON","",49.05005,3.34432,,,0,,,
02:01221,02:01221,"ESSOMES S/ M. - MONNEAUX ECOLE","",49.03904,3.35065,,,0,,,
02:01225,02:01225,"CHATEAU T. - LA FONTAINE","",49.04422,3.40139,,,0,,,
02:01237,02:01237,"BOHAIN EN V. - SAINTE SOPHIE","",49.9827,3.45684,,,0,,,
02:01240,02:01240,"PONT ARCY - ABRI","",49.39379,3.62952,,,0,,,
02:01241,02:01241,"MONTLEVON - LE HAUT CHAMBLON","",48.96964,3.49544,,,0,,,
02:01242,02:01242,"MONTLEVON - EGLISE ABRI","",48.96586,3.53996,,,0,,,
02:01243,02:01243,"MONTLEVON - MONTHARMEAUX","",48.9797,3.52812,,,0,,,
02:01244,02:01244,"COURBOIN - MONTBAZIN","",48.98378,3.51817,,,0,,,
02:01245,02:01245,"COURBOIN - HAB. PETITE CHAP","",48.99955,3.51456,,,0,,,
02:01246,02:01246,"COURBOIN - HAUT FORET","",48.99912,3.52185,,,0,,,
02:01247,02:01247,"COURBOIN - FERME CONFREMEAU","",48.99768,3.53533,,,0,,,
02:01248,02:01248,"MONTLEVON - LES ORGERIEUX","",48.95609,3.50006,,,0,,,
02:01254,02:01254,"PARGNY LA D. - ABRI","",48.95232,3.55222,,,0,,,
02:01255,02:01255,"MONTLEVON - PICHENY","",48.97186,3.54281,,,0,,,
02:01256,02:01256,"MONTLEVON - COUPIGNY","",48.98332,3.54674,,,0,,,
02:01257,02:01257,"MONT ST P. - MAIRIE ECOLE","",49.0751,3.49166,,,0,,,
02:01258,02:01258,"MONTHUREL - PLACE","",49.02239,3.54651,,,0,,,
02:01259,02:01259,"CELLES LES C. - ABRI","",49.01171,3.57102,,,0,,,
02:01260,02:01260,"CELLES LES C. - HERVINE","",49.0072,3.56602,,,0,,,
02:01261,02:01261,"CHARTEVES - ABRI","",49.07526,3.50352,,,0,,,
02:01262,02:01262,"COURTEMONT V. - PLACE","",49.07036,3.55154,,,0,,,
02:01264,02:01264,"NESLES LA M. - MAIRIE ABRI","",49.01959,3.42504,,,0,,,
02:01265,02:01265,"NESLES LA M. - LES BORDEAUX","",48.99158,3.46851,,,0,,,
02:01266,02:01266,"MONTLEVON - MAISON ROUGE","",48.98035,3.48005,,,0,,,
02:01267,02:01267,"VIFFORT - LA MALMAISON","",48.97033,3.46899,,,0,,,
02:01268,02:01268,"VIFFORT - PLACE","",48.96088,3.45772,,,0,,,
02:01269,02:01269,"VIFFORT - VILZEAU","",48.95326,3.46694,,,0,,,
02:01273,02:01273,"COURBOIN - PLACE EGLISE ABRI","",48.99361,3.5048,,,0,,,
02:01274,02:01274,"CONNIGIS - PASSAGE A NIVEAU","",49.03161,3.52671,,,0,,,
02:01275,02:01275,"MONTHUREL - ECOLE","",49.02257,3.54627,,,0,,,
02:01276,02:01276,"CONNIGIS - ECOLE","",49.0312,3.53203,,,0,,,
02:01277,02:01277,"LUCY LE B. - PLACE ABRI","",49.05721,3.27947,,,0,,,
02:01278,02:01278,"MONTREUIL AUX L - ABRI FACE MAIRI","",49.02181,3.19489,,,0,,,
02:01279,02:01279,"CHARLY S/ M. - CES","",48.97458,3.27896,,,0,,,
02:01280,02:01280,"NOGENT L A. - PLACE","",48.96616,3.32281,,,0,,,
02:01281,02:01281,"NOGENT L A. - MARRONNIERS ABRI","",48.96572,3.32695,,,0,,,
02:01282,02:01282,"CHATEAU T. - CREDIT AGRICOLE","",49.04469,3.40394,,,0,,,
02:01283,02:01283,"BONNEIL - MONT BONNEIL","",49.01031,3.34111,,,0,,,
02:01284,02:01284,"BONNEIL - ABRI","",49.00777,3.34837,,,0,,,
02:01285,02:01285,"ROMENY S/ M. - PLACE MAIRIE ABRI","",48.97514,3.33361,,,0,,,
02:01286,02:01286,"SAULCHERY - ABRI PLACE","",48.97445,3.30841,,,0,,,
02:01288,02:01288,"MARIGNY EN O. - PLACE DES HALLES","",49.05997,3.22697,,,0,,,
02:01289,02:01289,"MARIGNY EN O. - VILLERS LE VAST","",49.05932,3.2072,,,0,,,
02:01290,02:01290,"MONTREUIL AUX L - LA SABLONNIERE","",49.02966,3.18687,,,0,,,
02:01291,02:01291,"MONTREUIL AUX L - HALOUP CENTRE A","",49.02449,3.19445,,,0,,,
02:01292,02:01292,"MONTREUIL AUX L - HALOUP SORTIE","",49.02565,3.20177,,,0,,,
02:01293,02:01293,"MONTREUIL AUX L - LES MAILLONS AB","",49.01693,3.19107,,,0,,,
02:01294,02:01294,"BEZU LE G. - PISSELOUP","",49.00705,3.19897,,,0,,,
02:01295,02:01295,"BEZU LE G. - ABRI","",49.00841,3.22739,,,0,,,
02:01299,02:01299,"MONTFAUCON - CHATEAU LA DOULTE","",48.95946,3.44081,,,0,,,
02:01300,02:01300,"MONTFAUCON - MAIRIE","",48.94356,3.42964,,,0,,,
02:01301,02:01301,"MONTFAUCON - PONTOISE","",48.93477,3.44306,,,0,,,
02:01302,02:01302,"MONTFAUCON - LA MADELEINE","",48.9309,3.41449,,,0,,,
02:01303,02:01303,"MONTFAUCON - LES ROCHETS","",48.94163,3.40813,,,0,,,
02:01304,02:01304,"LA CHAPELLE S. - LA BOSSE","",48.94357,3.40153,,,0,,,
02:01305,02:01305,"LA CHAPELLE S. - FAYS FACE HAB. M","",48.94949,3.38582,,,0,,,
02:01306,02:01306,"LA CHAPELLE S. - MAIRIE ECOLE","",48.94664,3.37772,,,0,,,
02:01307,02:01307,"CHEZY S/ M. - LA CASINIERE","",48.96866,3.37033,,,0,,,
02:01308,02:01308,"NOGENT L A. - RUE ERNEST VALLE","",48.96432,3.31301,,,0,,,
02:01311,02:01311,"ESSISES - LES CAQUERETS","",48.96865,3.42157,,,0,,,
02:01312,02:01312,"ESSISES - LES MAISONS","",48.97105,3.41107,,,0,,,
02:01313,02:01313,"ESSISES - PLACE ABRI","",48.96143,3.42092,,,0,,,
02:01314,02:01314,"CHEZY S/ M. - ST JEAN","",48.98061,3.40926,,,0,,,
02:01315,02:01315,"CHEZY S/ M. - LES ROCHES ABRI","",48.98507,3.38273,,,0,,,
02:01316,02:01316,"CHEZY S/ M. - LE MONCET ABRI","",48.98504,3.38271,,,0,,,
02:01317,02:01317,"PAVANT - PISSELOUP","",48.94912,3.26315,,,0,,,
02:01318,02:01318,"PAVANT - MAIRIE ABRI","",48.95369,3.28526,,,0,,,
02:01319,02:01319,"CHARLY S/ M. - ECOLE MATERNELLE","",48.98028,3.28239,,,0,,,
02:01320,02:01320,"CROUTTES S/ M. - PLACE ABRI","",48.97983,3.23968,,,0,,,
02:01321,02:01321,"CROUTTES S/ M. - PETIT PORTERON","",48.96465,3.25754,,,0,,,
02:01322,02:01322,"CHARLY S/ M. - GRAND PORTERON","",48.95974,3.26072,,,0,,,
02:01324,02:01324,"NOGENT L A. - LA CHARNOIS","",48.94906,3.33686,,,0,,,
02:01325,02:01325,"NOGENT L A. - LE MOULINOIS","",48.94183,3.34088,,,0,,,
02:01327,02:01327,"NOGENT L A. - LA FEROTTERIE","",48.93422,3.3528,,,0,,,
02:01328,02:01328,"NOGENT L A. - LA MESNIL HAUT A","",48.9317,3.32439,,,0,,,
02:01331,02:01331,"CHARLY S/ M. - CES ARRIVEE","",48.97454,3.27947,,,0,,,
02:01332,02:01332,"CHARLY S/ M. - CES DEPART","",48.97459,3.2785,,,0,,,
02:01333,02:01333,"CHARLY S/ M. - ECOLE PRIMAIRE","",48.97543,3.28639,,,0,,,
02:01334,02:01334,"AZY S/ M. - ABRI","",49.00104,3.3658,,,0,,,
02:01335,02:01335,"SAULCHERY - CHEMIN VERT","",48.97178,3.31865,,,0,,,
02:01336,02:01336,"CHARLY S/ M. - RUVET ABRI","",48.97595,3.29821,,,0,,,
02:01337,02:01337,"DOMPTIN - SALLE POLYVALENTE","",49.01657,3.27627,,,0,,,
02:01342,02:01342,"MARIGNY EN O. - VOIE DU CHATEL","",49.05386,3.24186,,,0,,,
02:01343,02:01343,"NESLES LA M. - PETIT BALLOIS","",49.01204,3.4444,,,0,,,
02:01344,02:01344,"NESLES LA M. - HAMEAU PETRET","",49.00592,3.43996,,,0,,,
02:01345,02:01345,"ESSISES - NICOLI ABRI","",48.96228,3.41629,,,0,,,
02:01347,02:01347,"NOGENTEL - PLACE ABRI","",49.0143,3.40144,,,0,,,
02:01348,02:01348,"ESSOMES S/ M. - VAUX PLACE ABRI","",49.04487,3.34898,,,0,,,
02:01349,02:01349,"ESSOMES S/ M. - GRAND MONTCOURT","",49.03146,3.35321,,,0,,,
02:01350,02:01350,"ESSOMES S/ M. - PETIT MONTCOURT","",49.02838,3.36149,,,0,,,
02:01352,02:01352,"ESSOMES S/ M. - RESID LA VALLEE","",49.03319,3.37782,,,0,,,
02:01353,02:01353,"ESSOMES S/ M. - ROUVROY ABRI","",49.00761,3.37528,,,0,,,
02:01354,02:01354,"ESSOMES S/ M. - AULNOY ABRI","",49.0165,3.37562,,,0,,,
02:01355,02:01355,"ESSOMES S/ M. - BOURBETIN","",49.04046,3.32786,,,0,,,
02:01356,02:01356,"BOURESCHES - ECOLE ABRI","",49.06249,3.30852,,,0,,,
02:01358,02:01358,"SOMMELANS - ABRI","",49.13747,3.29434,,,0,,,
02:01359,02:01359,"EPAUX BEZU - BUIRE HAMEAU X","",49.10811,3.33265,,,0,,,
02:01360,02:01360,"CHARLY S/ M. - POSTE RUE E MORLOT","",48.97659,3.28203,,,0,,,
02:01362,02:01362,"ETREPILLY - MAIRIE","",49.08492,3.34031,,,0,,,
02:01363,02:01363,"BELLEAU - GIVRY FACE ABRI","",49.08784,3.29915,,,0,,,
02:01365,02:01365,"CHEZY EN O. - ECOLE PLACE ABRI","",49.1241,3.18204,,,0,,,
02:01367,02:01367,"GANDELU - ABRI","",49.09469,3.18533,,,0,,,
02:01368,02:01368,"VEUILLY LA P. - LA CROIX MARAIS","",49.0888,3.21386,,,0,,,
02:01369,02:01369,"BUSSIARES - ABRI","",49.09141,3.25655,,,0,,,
02:01370,02:01370,"LICY CLIGNON - MAIRIE","",49.09922,3.27392,,,0,,,
02:01371,02:01371,"TORCY EN V. - ABRI","",49.08763,3.2793,,,0,,,
02:01372,02:01372,"MONTHIERS - ABRI PLACE","",49.1027,3.29924,,,0,,,
02:01373,02:01373,"COURCHAMPS - ABRI PLACE","",49.11267,3.26445,,,0,,,
02:01374,02:01374,"HAUTEVESNES - EGLISE ABRI","",49.10938,3.23208,,,0,,,
02:01375,02:01375,"PRIEZ - PLACE","",49.13729,3.26337,,,0,,,
02:01376,02:01376,"NEUILLY ST F. - REMONVOISIN ABRI","",49.13988,3.26406,,,0,,,
02:01377,02:01377,"NEUILLY ST F. - PLACE EGLISE","",49.17088,3.25954,,,0,,,
02:01378,02:01378,"NEUILLY ST F. - PL. DES BRUYERES","",49.16726,3.26525,,,0,,,
02:01379,02:01379,"GRISOLLES - ABRI","",49.14069,3.35805,,,0,,,
02:01380,02:01380,"GRISOLLES - LE CHARME","",49.13004,3.3732,,,0,,,
02:01381,02:01381,"ARMENTIERES S. - ABRI","",49.18338,3.38508,,,0,,,
02:01382,02:01382,"NANTEUIL N. D. - EGLISE ABRI","",49.19186,3.40775,,,0,,,
02:01383,02:01383,"BRUYERES S/ F. - ABRI ECOLE","",49.18978,3.4453,,,0,,,
02:01385,02:01385,"BRECY - PLACE","",49.14864,3.42872,,,0,,,
02:01387,02:01387,"L EPINE AUX . - MEUBLIERE F.COSTE","",48.89396,3.46112,,,0,,,
02:01388,02:01388,"L EPINE AUX B. - PLACE ABRI","",48.88496,3.44744,,,0,,,
02:01390,02:01390,"ST GENGOULPH - VINLY","",49.09904,3.20576,,,0,,,
02:01391,02:01391,"ST GENGOULPH - ABRI","",49.12085,3.21744,,,0,,,
02:01392,02:01392,"ST GENGOULPH - CHEVILLON ABRI","",49.12924,3.22127,,,0,,,
02:01393,02:01393,"MONNES - LAVOIR","",49.14777,3.22027,,,0,,,
02:01394,02:01394,"DAMMARD - PLACE ECOLE","",49.1448,3.19832,,,0,,,
02:01396,02:01396,"MACOGNY - RD4 RESERVOIR","",49.1592,3.23133,,,0,,,
02:01398,02:01398,"NOGENTEL - STADE MUNICIPAL","",49.03354,3.40711,,,0,,,
02:01400,02:01400,"COINCY  - ECOLE PRIMAIRE PARKING","",49.15949,3.41787,,,0,,,
02:01401,02:01401,"COINCY  - LA POTERIE","",49.17306,3.4167,,,0,,,
02:01402,02:01402,"COINCY  - ECOLE MATERNELLE","",49.16057,3.41944,,,0,,,
02:01404,02:01404,"ROCOURT ST M. - PL. S. POLYV.","",49.15206,3.3882,,,0,,,
02:01405,02:01405,"DAMMARD - MONTEMAFROY ABRI","",49.14632,3.16413,,,0,,,
02:01406,02:01406,"COULONGES C. - VILLOME FERME","",49.20439,3.6184,,,0,,,
02:01407,02:01407,"COULONGES C. - CHAMERY CROISEME","",49.1929,3.61535,,,0,,,
02:01409,02:01409,"COULONGES C. - ECOLE","",49.20156,3.63652,,,0,,,
02:01410,02:01410,"VILLERS AGRON A - ABRI","",49.1611,3.69585,,,0,,,
02:01411,02:01411,"GOUSSANCOURT - PLACE ABRI","",49.16817,3.6681,,,0,,,
02:01412,02:01412,"VEZILLY - PLACE ABRI","",49.1808,3.69134,,,0,,,
02:01413,02:01413,"VEZILLY - VENDOME ARRET","",49.1728,3.67523,,,0,,,
02:01415,02:01415,"DRAVEGNY - LONGEVILLE ABRI","",49.2428,3.64616,,,0,,,
02:01417,02:01417,"BEUVARDES - ECOLE","",49.13913,3.48755,,,0,,,
02:01418,02:01418,"FERE EN T. - ECOLE MAT et PRIM","",49.19982,3.50923,,,0,,,
02:01419,02:01419,"FERE EN T. - ECOLE PRIVEE","",49.20007,3.51163,,,0,,,
02:01423,02:01423,"EPIEDS - ABRI","",49.10548,3.44396,,,0,,,
02:01425,02:01425,"FERE EN T. - CES","",49.19905,3.50809,,,0,,,
02:01427,02:01427,"LOUPEIGNE - ABRI","",49.25073,3.5346,,,0,,,
02:01428,02:01428,"GRAND ROZOY - X EGLISE","",49.23487,3.38965,,,0,,,
02:01429,02:01429,"BEUGNEUX - MONUM. AUX MORTS","",49.23443,3.41438,,,0,,,
02:01430,02:01430,"CRAMAILLE - CRAMOISELLE","",49.2313,3.44079,,,0,,,
02:01431,02:01431,"BEUGNEUX - WALLE X","",49.20792,3.41675,,,0,,,
02:01432,02:01432,"OULCHY LE C. - ABRI PLACE","",49.20427,3.36808,,,0,,,
02:01434,02:01434,"VILLENEUVE S/ F - PLACE ABRI","",49.1773,3.47527,,,0,,,
02:01435,02:01435,"SERGY - 6 RUE DE L'EGLISE","",49.18269,3.57056,,,0,,,
02:01436,02:01436,"CIERGES - ABRI","",49.16862,3.59965,,,0,,,
02:01437,02:01437,"RONCHERES - MAIRIE ABRI","",49.14469,3.60249,,,0,,,
02:01438,02:01438,"COULONGES C. - HAMEAU COURTEAUX","",49.18123,3.6449,,,0,,,
02:01439,02:01439,"SERINGES ET N. - ABRI","",49.20465,3.53946,,,0,,,
02:01441,02:01441,"DRAVEGNY - ABRI","",49.232,3.63757,,,0,,,
02:01442,02:01442,"SERINGES ET N. - NESLES ABRI","",49.20252,3.5741,,,0,,,
02:01443,02:01443,"COURMONT - MAIRIE ABRI","",49.149,3.57639,,,0,,,
02:01445,02:01445,"LE CHARMEL - PLACE ABRI","",49.11378,3.54946,,,0,,,
02:01446,02:01446,"FRESNES EN T. - ECOLE","",49.14627,3.55541,,,0,,,
02:01448,02:01448,"VILLERS S/ F. - LES FONTENETTES","",49.14925,3.52205,,,0,,,
02:01451,02:01451,"MAREUIL EN D. - FERME DES TOURNE","",49.2421,3.55144,,,0,,,
02:01455,02:01455,"TROESNES - ABRI","",49.19295,3.17017,,,0,,,
02:01456,02:01456,"SILLY LA P. - GARE ABRI","",49.19733,3.16463,,,0,,,
02:01457,02:01457,"SILLY LA P. - LE PETIT PORT","",49.19484,3.16016,,,0,,,
02:01458,02:01458,"SILLY LA P. - ARRET RTA ABRI","",49.19416,3.14799,,,0,,,
02:01460,02:01460,"LA FERTE M. - ECOLE ABRI","",49.18122,3.12377,,,0,,,
02:01461,02:01461,"MARIZY STE G. - ABRI","",49.18387,3.20282,,,0,,,
02:01462,02:01462,"PASSY EN V. - ABRI","",49.16797,3.19395,,,0,,,
02:01463,02:01463,"LA FERTE M. - MOSLOY ABRI","",49.17629,3.15486,,,0,,,
02:01464,02:01464,"CHOUY - ABRI","",49.2061,3.24946,,,0,,,
02:01465,02:01465,"CHOUY - VILLERS PETIT","",49.22042,3.24465,,,0,,,
02:01466,02:01466,"ANCIENVILLE - MAIRIE ABRI","",49.21809,3.21453,,,0,,,
02:01467,02:01467,"NOROY S/ O. - ABRI","",49.20481,3.21208,,,0,,,
02:01469,02:01469,"NEUILLY ST F. - ECOLE","",49.17173,3.26863,,,0,,,
02:01470,02:01470,"VICHEL N. - ABRI","",49.18763,3.28925,,,0,,,
02:01471,02:01471,"MACOGNY - VILLAGE","",49.16544,3.22922,,,0,,,
02:01472,02:01472,"MARIZY ST M. - CROISEMENT","",49.18105,3.22234,,,0,,,
02:01473,02:01473,"NEUILLY ST F. - SUCRERIE","",49.18745,3.24945,,,0,,,
02:01474,02:01474,"BONNESVALYN - ABRI","",49.11921,3.31677,,,0,,,
02:01475,02:01475,"PRIEZ - MAIRIE  ABRI","",49.13731,3.26328,,,0,,,
02:01476,02:01476,"NEUILLY ST F. - CES","",49.17148,3.26942,,,0,,,
02:01478,02:01478,"LE PLESSIER H. - PLACE","",49.23866,3.3437,,,0,,,
02:01479,02:01479,"ST REMY B. - ABRI PLACE","",49.24083,3.31018,,,0,,,
02:01480,02:01480,"ST REMY B. - BLANZY","",49.24904,3.29867,,,0,,,
02:01482,02:01482,"BILLY S/ O. - FERME D'EDROLLES","",49.21576,3.27955,,,0,,,
02:01483,02:01483,"ROZET ST A. - ECOLE ABRI","",49.19643,3.30514,,,0,,,
02:01484,02:01484,"MONTGRU ST H. - ECOLE","",49.18929,3.32823,,,0,,,
02:01485,02:01485,"LA CROIX S/O.  - PLACE ABRI","",49.16823,3.35371,,,0,,,
02:01486,02:01486,"GRISOLLES - ABRI RUE DU CHATEAU","",49.14147,3.3568,,,0,,,
02:01488,02:01488,"BRUMETZ - AIRE FACE MAIS. M","",49.10354,3.15069,,,0,,,
02:01491,02:01491,"PRIEZ - MONTMANJEON X","",49.13571,3.25106,,,0,,,
02:01492,02:01492,"MONTGRU ST H. - FERME LE CHENE","",49.17337,3.3225,,,0,,,
02:01493,02:01493,"MONTGRU ST H. - WADON X","",49.17059,3.31911,,,0,,,
02:01495,02:01495,"COURMONT - ECOLE","",49.14902,3.5764,,,0,,,
02:01496,02:01496,"LA CELLE /S M. - ABRI","",48.86339,3.46587,,,0,,,
02:01497,02:01497,"VENDIERES - EGLISE","",48.87181,3.44636,,,0,,,
02:01499,02:01499,"VIELS MAISONS - GROUPE SCOLAIRE","",48.8987,3.39704,,,0,,,
02:01504,02:01504,"FONTENELLE EN B - FACE N°12","",48.91819,3.47687,,,0,,,
02:01505,02:01505,"ROZOY B. - PLACE","",48.92457,3.45191,,,0,,,
02:01507,02:01507,"ESSOMES S/ M. - ECOLE MATERNELLE","",49.02713,3.36962,,,0,,,
02:01513,02:01513,"ST QUENTIN - CAFE DE L'HORLOGE","",49.85285,3.28633,,,0,,,
02:01514,02:01514,"REUILLY S. - FACE ABRI","",49.05788,3.55715,,,0,,,
02:01515,02:01515,"ST QUENTIN - HOPITAL","",49.86209,3.2698,,,0,,,
02:01516,02:01516,"COURTEMONT V. - GROUPE SCOL VAREN","",49.07437,3.54637,,,0,,,
02:01520,02:01520,"FAYET - ABRI EGLISE","",49.86809,3.2508,,,0,,,
02:01521,02:01521,"BARZY S/ M. - MARCILLY EC. ABRI","",49.08066,3.55953,,,0,,,
02:01522,02:01522,"BARZY S/ M. - ROZAY ABRI","",49.07475,3.56228,,,0,,,
02:01527,02:01527,"GRICOURT - MAIRIE","",49.8882,3.24145,,,0,,,
02:01528,02:01528,"PONTRUET - ABRI RUE CALVAIRE","",49.90745,3.2313,,,0,,,
02:01529,02:01529,"PONTRUET - ECOLE ABRI","",49.90982,3.23151,,,0,,,
02:01530,02:01530,"BELLENGLISE - 9 RUE DU CHATEAU","",49.92632,3.24797,,,0,,,
02:01531,02:01531,"BELLENGLISE - VILLAGE","",49.92248,3.24436,,,0,,,
02:01532,02:01532,"BELLENGLISE - RUE DU 87EME","",49.9204,3.2518,,,0,,,
02:01533,02:01533,"MAGNY LA F. - ECOLE","",49.93254,3.27487,,,0,,,
02:01534,02:01534,"LEHAUCOURT - ABRI RUE DELVAL","",49.92041,3.28108,,,0,,,
02:01535,02:01535,"LEVERGIES - ABRI RUE DESSOUS","",49.92767,3.30993,,,0,,,
02:01536,02:01536,"RAMICOURT - ABRI PLACE","",49.95853,3.32952,,,0,,,
02:01537,02:01537,"JONCOURT - ABRI","",49.95464,3.29665,,,0,,,
02:01538,02:01538,"ESTREES - PLACE EGLISE","",49.96752,3.28697,,,0,,,
02:01539,02:01539,"GANDELU - DOM. CLIGNON AIRE","",49.09631,3.19264,,,0,,,
02:01540,02:01540,"GANDELU - PREMENT","",49.07504,3.17944,,,0,,,
02:01541,02:01541,"GANDELU - ECOLE","",49.09415,3.18298,,,0,,,
02:01542,02:01542,"MONTIGNY L A. - CERFROID X","",49.11056,3.12474,,,0,,,
02:01543,02:01543,"MONTIGNY L A. - ECOLE","",49.11169,3.10159,,,0,,,
02:01545,02:01545,"BELLICOURT - ABRI MAIRIE","",49.96117,3.2318,,,0,,,
02:01546,02:01546,"NAUROY - LA CANTINE","",49.95562,3.26781,,,0,,,
02:01547,02:01547,"NAUROY - ABRI","",49.95189,3.25226,,,0,,,
02:01548,02:01548,"BONY - MAIRIE","",49.98783,3.22376,,,0,,,
02:01554,02:01554,"CHEZY S/ M. - ECOLE","",48.99092,3.3647,,,0,,,
02:01561,02:01561,"MEZY MOULINS - MOULINS MAIRIE","",49.05954,3.52101,,,0,,,
02:01562,02:01562,"FOSSOY - ECOLE AIRE DE STATIONNEM","",49.049,3.48299,,,0,,,
02:01563,02:01563,"MEZY MOULINS - MOULINS ECOLE","",49.05944,3.51995,,,0,,,
02:01564,02:01564,"LE CATEAU C. - GARE ROUTIERE","",50.10811,3.53954,,,0,,,
02:01566,02:01566,"AMBRIEF - ABRI","",49.31957,3.40189,,,0,,,
02:01567,02:01567,"MAAST ET V. - VIOLAINE ABRI","",49.29071,3.45345,,,0,,,
02:01569,02:01569,"MURET ET C. - PLACE ABRI","",49.28453,3.41701,,,0,,,
02:01570,02:01570,"MURET ET C. - CROUTTES ABRI","",49.2767,3.42955,,,0,,,
02:01571,02:01571,"NAMPTEUIL /S M. - MAIRIE ABRI","",49.30084,3.42572,,,0,,,
02:01572,02:01572,"CHACRISE - VILLEBLAIN PLACE","",49.30255,3.38279,,,0,,,
02:01573,02:01573,"CHACRISE - ECOLE","",49.30361,3.40434,,,0,,,
02:01575,02:01575,"LONGPONT - FERME BEAUREPAIRE","",49.29761,3.23995,,,0,,,
02:01576,02:01576,"VIERZY - VAUXCASTILLE ABRI","",49.29107,3.25664,,,0,,,
02:01577,02:01577,"VIERZY - SUCRERIE","",49.29251,3.27689,,,0,,,
02:01578,02:01578,"VIERZY - ECOLE","",49.28982,3.28708,,,0,,,
02:01583,02:01583,"CHASSEMY - ABRI PLACE ECOLE","",49.38132,3.50533,,,0,,,
02:01584,02:01584,"BRAINE - FERME LAGRANGE","",49.35431,3.50949,,,0,,,
02:01585,02:01585,"BRAINE - CES","",49.34702,3.53343,,,0,,,
02:01586,02:01586,"SERCHES - AGGLOMERATION","",49.34452,3.43951,,,0,,,
02:01587,02:01587,"SERCHES - PLACE ABRI","",49.33944,3.44983,,,0,,,
02:01588,02:01588,"COUVRELLES - EPRITEL FERME","",49.33097,3.46655,,,0,,,
02:01589,02:01589,"COUVRELLES - ANCIENNE ECOLE","",49.33763,3.48814,,,0,,,
02:01593,02:01593,"CHERY C. - ECOLE ABRI","",49.2611,3.61364,,,0,,,
02:01595,02:01595,"MONT ST M. - ABRI","",49.28226,3.6395,,,0,,,
02:01596,02:01596,"VILLESAVOYE - ABRI","",49.29339,3.64023,,,0,,,
02:01597,02:01597,"ST THIBAUT - ABRI PLACE","",49.29929,3.61617,,,0,,,
02:01599,02:01599,"PAARS - ABRI","",49.32887,3.60119,,,0,,,
02:01600,02:01600,"COURCELLES S/ V - ARRET CARS ABRI","",49.33836,3.57105,,,0,,,
02:01601,02:01601,"LIME - PLACE ABRI","",49.32215,3.54855,,,0,,,
02:01602,02:01602,"CERSEUIL - ABRI","",49.32331,3.52105,,,0,,,
02:01603,02:01603,"CUIRY HOUSSE - ABRI","",49.29505,3.49225,,,0,,,
02:01604,02:01604,"LESGES - MAIRIE","",49.30598,3.50729,,,0,,,
02:01605,02:01605,"BRAINE - SAINTE MARIE","",49.34257,3.53813,,,0,,,
02:01606,02:01606,"BRAINE - ECOLE PRIMAIRE","",49.34505,3.5352,,,0,,,
02:01607,02:01607,"BRAINE - ECOLE MATERNELLE","",49.34311,3.53219,,,0,,,
02:01608,02:01608,"CIRY SALSOGNE - CITE BASTIER ABRI","",49.37187,3.47119,,,0,,,
02:01609,02:01609,"CIRY SALSOGNE - ABRI","",49.36071,3.4703,,,0,,,
02:01610,02:01610,"CIRY SALSOGNE - SALSOGNE RN 31","",49.37056,3.46569,,,0,,,
02:01613,02:01613,"QUINCY /S L. - ABRI","",49.30584,3.55176,,,0,,,
02:01614,02:01614,"JOUAIGNES - ABRI","",49.29805,3.53564,,,0,,,
02:01616,02:01616,"TANNIERES - PLACE","",49.29028,3.55209,,,0,,,
02:01618,02:01618,"LHUYS - PLACE ABRI","",49.28081,3.55517,,,0,,,
02:01619,02:01619,"MONT NOTRE D. - ABRI","",49.29322,3.58384,,,0,,,
02:01620,02:01620,"MONT NOTRE D. - GARE","",49.2963,3.57621,,,0,,,
02:01621,02:01621,"VIEL ARCY - ABRI","",49.38141,3.6248,,,0,,,
02:01622,02:01622,"VIEL ARCY - MOULIN DE BAS","",49.37518,3.63332,,,0,,,
02:01624,02:01624,"VAUXTIN - ABRI","",49.35031,3.60207,,,0,,,
02:01626,02:01626,"BRENELLE - MAIRIE ABRI","",49.36527,3.54123,,,0,,,
02:01627,02:01627,"VAILLY S/ A. - CES","",49.403,3.52367,,,0,,,
02:01629,02:01629,"MONT NOTRE D. - N.5 RTE DE LHUYS","",49.29195,3.5767,,,0,,,
02:01630,02:01630,"MONT NOTRE D. - ECOLE","",49.2976,3.58413,,,0,,,
02:01631,02:01631,"BRENY - ABRI PLACE EGLISE","",49.18606,3.35178,,,0,,,
02:01632,02:01632,"EPAGNY - EGLISE ABRI","",49.46123,3.24024,,,0,,,
02:01633,02:01633,"VEZAPONIN - ECOLE","",49.4581,3.22959,,,0,,,
02:01634,02:01634,"MORSAIN - 44 BERLINVAL","",49.4574,3.19777,,,0,,,
02:01635,02:01635,"MORSAIN - OUILLY ABRI","",49.45708,3.19769,,,0,,,
02:01636,02:01636,"MORSAIN - EURY","",49.45066,3.19336,,,0,,,
02:01637,02:01637,"MORSAIN - ECOLE MORSAIN","",49.45369,3.18097,,,0,,,
02:01638,02:01638,"VASSENS - ABRI","",49.4678,3.15446,,,0,,,
02:01639,02:01639,"MORSAIN - VAUX CARREFOUR","",49.46127,3.17374,,,0,,,
02:01640,02:01640,"MORSAIN - CALVAIRE","",49.45562,3.17588,,,0,,,
02:01641,02:01641,"MORSAIN - 24 RUE DE CAUHET","",49.45542,3.17641,,,0,,,
02:01644,02:01644,"FONTENOY - ECOLE PRIMAIRE","",49.40747,3.19686,,,0,,,
02:01646,02:01646,"FONTENOY - ECOLE MATERNELLE","",49.40756,3.19618,,,0,,,
02:01648,02:01648,"NOUVRON VINGRE - VINGRE ABRI","",49.42886,3.17498,,,0,,,
02:01649,02:01649,"NOUVRON VINGRE - CONFRECOURT","",49.42728,3.19002,,,0,,,
02:01650,02:01650,"NOUVRON VINGRE - PLACE ABRI","",49.42876,3.19975,,,0,,,
02:01652,02:01652,"PARCY ET T. - ABRI HANGAR","",49.27126,3.3198,,,0,,,
02:01653,02:01653,"HARTENNES ET T. - ECOLE","",49.27409,3.34945,,,0,,,
02:01655,02:01655,"HARTENNES ET T. - ABRI GARE","",49.26463,3.36035,,,0,,,
02:01656,02:01656,"BUZANCY - BAS ABRI","",49.31305,3.34508,,,0,,,
02:01657,02:01657,"BUZANCY - HAUT ABRI","",49.31191,3.34856,,,0,,,
02:01658,02:01658,"VILLEMONTOIRE - CHARENTIGNY ABRI","",49.30288,3.31207,,,0,,,
02:01659,02:01659,"VILLEMONTOIRE - PLACE ABRI","",49.30034,3.33321,,,0,,,
02:01661,02:01661,"DROIZY - PLACE ABRI","",49.27715,3.39318,,,0,,,
02:01662,02:01662,"LAUNOY - ABRI","",49.26435,3.39938,,,0,,,
02:01667,02:01667,"LONGUEVAL B. - BARBONVAL PLACE","",49.35817,3.6721,,,0,,,
02:01668,02:01668,"SERVAL - ARRET RTA","",49.35396,3.68793,,,0,,,
02:01669,02:01669,"MERVAL - ABRI","",49.35346,3.69615,,,0,,,
02:01670,02:01670,"GLENNES - ABRI","",49.35597,3.71301,,,0,,,
02:01672,02:01672,"REVILLON - ABRI","",49.36546,3.70002,,,0,,,
02:01674,02:01674,"VILLERS EN P. - ECOLE","",49.3781,3.67637,,,0,,,
02:01675,02:01675,"LONGUEVAL B. - ECOLE MATERNELLE","",49.35888,3.65401,,,0,,,
02:01676,02:01676,"BLANZY LES F. - ABRI","",49.33826,3.67108,,,0,,,
02:01677,02:01677,"PERLES - ABRI","",49.32662,3.654,,,0,,,
02:01678,02:01678,"VAUXCERE - ABRI","",49.34089,3.63595,,,0,,,
02:01682,02:01682,"OULCHY LE C. - MOULIN NOEL","",49.18743,3.3844,,,0,,,
02:01683,02:01683,"OULCHY LE C. - CUGNY CROUTTES","",49.20038,3.39965,,,0,,,
02:01685,02:01685,"LA CROIX S/O.  - FERME TRIANGLE","",49.15194,3.33189,,,0,,,
02:01686,02:01686,"BEUGNEUX - PLACE ABRI","",49.23466,3.41406,,,0,,,
02:01687,02:01687,"CELLES S/ A. - ABRI","",49.40342,3.48143,,,0,,,
02:01689,02:01689,"NANTEUIL LA F. - MAIRIE ABRI","",49.43534,3.45245,,,0,,,
02:01690,02:01690,"NANTEUIL LA F. - MENNEJEAN FERME","",49.44254,3.46587,,,0,,,
02:01691,02:01691,"SANCY LES C. - EGLISE ABRI","",49.4334,3.47148,,,0,,,
02:01692,02:01692,"AIZY JOUY - COLOMBES FERME","",49.44008,3.49232,,,0,,,
02:01695,02:01695,"CYS LA C. - ABRI","",49.39269,3.57059,,,0,,,
02:01696,02:01696,"ST MARD - EGLISE ABRI","",49.38683,3.58269,,,0,,,
02:01698,02:01698,"MOUSSY V. - X COURTONNE","",49.40743,3.64204,,,0,,,
02:01699,02:01699,"MOUSSY V. - ABRI","",49.41572,3.63312,,,0,,,
02:01700,02:01700,"OSTEL - PLACE ABRI","",49.42977,3.57088,,,0,,,
02:01701,02:01701,"VAILLY S/ A. - PL.  BOUVINE ECOLE","",49.408,3.51594,,,0,,,
02:01703,02:01703,"VENDRESSE B. - ABRI","",49.42834,3.66776,,,0,,,
02:01704,02:01704,"MOULINS - ABRI","",49.42034,3.68533,,,0,,,
02:01705,02:01705,"BOURG ET C. - ARRET TRANSFO.","",49.39646,3.66055,,,0,,,
02:01706,02:01706,"MOUSSY V. - ABRI ECLUSE 12","",49.4156,3.62329,,,0,,,
02:01707,02:01707,"MOUSSY V. - ECLUSE 11","",49.42028,3.61829,,,0,,,
02:01708,02:01708,"BRAYE EN L. - ECOLE ABRI","",49.44096,3.60882,,,0,,,
02:01709,02:01709,"CORCY - ECOLE","",49.25245,3.21109,,,0,,,
02:01710,02:01710,"LOUATRE - ECOLE","",49.2576,3.24784,,,0,,,
02:01711,02:01711,"VILLERS HELON - PLACE ABRI","",49.26571,3.2622,,,0,,,
02:01712,02:01712,"LONGPONT - ECOLE","",49.27326,3.22019,,,0,,,
02:01713,02:01713,"VILLERS C. - CES FRANCOIS 1ER","",49.24201,3.07278,,,0,,,
02:01714,02:01714,"VILLERS C. - CES MAX DUSSUCHAL","",49.25867,3.08208,,,0,,,
02:01724,02:01724,"LA FERTE M. - PL. HOT. RACINE","",49.17547,3.12903,,,0,,,
02:01727,02:01727,"VILLERS C. - GARE SNCF","",49.25054,3.09371,,,0,,,
02:01735,02:01735,"FLEURY - ABRI","",49.2561,3.16015,,,0,,,
02:01737,02:01737,"LOUATRE - VALLEE DU CHENE","",49.24403,3.22505,,,0,,,
02:01738,02:01738,"LOUATRE - LA FALAISE","",49.24368,3.24368,,,0,,,
02:01742,02:01742,"LA FERTE M. - RUE DES GALETS","",49.18369,3.1238,,,0,,,
02:01743,02:01743,"VILLERS C. - LYCEE","",49.25051,3.07961,,,0,,,
02:01744,02:01744,"OIGNY EN V. - PLACE","",49.21957,3.1368,,,0,,,
02:01746,02:01746,"COYOLLES - ECOLE","",49.23416,3.04261,,,0,,,
02:01747,02:01747,"VILLERS C. - E.P. DEMOUSTIER","",49.25291,3.08967,,,0,,,
02:01748,02:01748,"VILLERS C. - E.P. LEO LAGRANGE","",49.25373,3.08757,,,0,,,
02:01749,02:01749,"TAILLEFONTAINE - ECOLE","",49.31248,3.04191,,,0,,,
02:01750,02:01750,"RETHEUIL - ECOLE","",49.32213,3.00955,,,0,,,
02:01751,02:01751,"MORTEFONTAINE - ROY ST NICOLAS","",49.33116,3.05513,,,0,,,
02:01752,02:01752,"MORTEFONTAINE - MAIRIE","",49.33186,3.07521,,,0,,,
02:01753,02:01753,"MORTEFONTAINE - VAUBERON FERME","",49.34186,3.11105,,,0,,,
02:01754,02:01754,"VIVIERES - ABRI MAIRIE","",49.29989,3.10361,,,0,,,
02:01755,02:01755,"MORTEFONTAINE - FERME DE POUY","",49.34775,3.09858,,,0,,,
02:01756,02:01756,"HARAMONT - ECOLE PLACE ABRI","",49.27851,3.06172,,,0,,,
02:01757,02:01757,"TAILLEFONTAINE - ABRI","",49.31297,3.04454,,,0,,,
02:01758,02:01758,"LARGNY S/ A. - PLACE MAIRIE","",49.26017,3.04253,,,0,,,
02:01759,02:01759,"PUISEUX EN R. - ECOLE MAIRIE","",49.29678,3.12885,,,0,,,
02:01760,02:01760,"SOUCY - PLACE MAIRIE","",49.31218,3.12508,,,0,,,
02:01761,02:01761,"COEUVRES ET V. - ABRI MAIRIE","",49.33915,3.15501,,,0,,,
02:01762,02:01762,"MONTGOBERT - ABRI","",49.30721,3.14957,,,0,,,
02:01764,02:01764,"FAVEROLLES - ABRI","",49.22397,3.17517,,,0,,,
02:01765,02:01765,"NOROY S/ O. - D791 X D1370","",49.20703,3.21552,,,0,,,
02:01767,02:01767,"OIGNY EN V. - FERME BAISEMONT","",49.21161,3.11126,,,0,,,
02:01770,02:01770,"LA FERTE M. - ST QUENTIN-ALLAN","",49.1445,3.13965,,,0,,,
02:01774,02:01774,"FAVEROLLES - LE BUCHET","",49.2036,3.16871,,,0,,,
02:01776,02:01776,"ST CHRISTOPHE A -BERRY 22 OURCAMP","",49.42709,3.14804,,,0,,,
02:01777,02:01777,"ST CHRISTOPHE A - PLACE MAIRIE","",49.42286,3.13258,,,0,,,
02:01778,02:01778,"VIC S/A. - PLACE ABRI","",49.40668,3.11487,,,0,,,
02:01779,02:01779,"VIC S/A. - CES","",49.40654,3.12639,,,0,,,
02:01781,02:01781,"RESSONS LE L. - GORGNY","",49.3912,3.16099,,,0,,,
02:01783,02:01783,"MONTIGNY L. -CALVAIRE DE LA GORGE","",49.36958,3.10551,,,0,,,
02:01785,02:01785,"MONTIGNY L. - MAIRIE","",49.37168,3.09901,,,0,,,
02:01786,02:01786,"MONTIGNY L. - TANNIER PL DAUPH.","",49.38775,3.09335,,,0,,,
02:01787,02:01787,"RESSONS LE L. - VACHE NOIRE D2","",49.39699,3.11469,,,0,,,
02:01788,02:01788,"AUDIGNICOURT - PLACE ABRI","",49.47704,3.13385,,,0,,,
02:01789,02:01789,"MORSAIN - MAIRIE ABRI","",49.45373,3.18094,,,0,,,
02:01792,02:01792,"ST PIERRE A. - HAUT ABRI","",49.32265,3.18461,,,0,,,
02:01793,02:01793,"ST PIERRE A. - CHAFOSSE ABRI","",49.31908,3.18669,,,0,,,
02:01794,02:01794,"RESSONS LE L. - ECOLE ABRI","",49.38784,3.14906,,,0,,,
02:01795,02:01795,"RESSONS LE L. - CHENEUX ABRI","",49.3883,3.13878,,,0,,,
02:01796,02:01796,"RESSONS LE L. - MONTOIS ABRI","",49.3888,3.12963,,,0,,,
02:01797,02:01797,"LAVERSINE - MAIRIE","",49.35185,3.17049,,,0,,,
02:01798,02:01798,"CUTRY - ABRI","",49.3474,3.17706,,,0,,,
02:01799,02:01799,"CUTRY - HAUT BASCULE","",49.34506,3.17857,,,0,,,
02:01800,02:01800,"ST PIERRE A. - FACE DOMICILE NA.","",49.31943,3.18111,,,0,,,
02:01802,02:01802,"COEUVRES ET V. - PLACE ECOLE","",49.33888,3.15493,,,0,,,
02:01804,02:01804,"AMBLENY - ECOLE MAT. R. DAN","",49.37936,3.18483,,,0,,,
02:01805,02:01805,"AMBLENY - EGLISE","",49.3805,3.184,,,0,,,
02:01806,02:01806,"OSLY COURTIL - PLACE ECOLE","",49.40151,3.22742,,,0,,,
02:01808,02:01808,"FONTENOY - MAIRIE PLACE ABRI","",49.40747,3.19694,,,0,,,
02:01809,02:01809,"FONTENOY - PORT FONTENOY","",49.40833,3.18338,,,0,,,
02:01810,02:01810,"BERNY RIVIERE - VAUX D91 ABRI","",49.40761,3.1676,,,0,,,
02:01811,02:01811,"BERNY RIVIERE - ROCHE HAUT ABRI","",49.40685,3.15956,,,0,,,
02:01812,02:01812,"BERNY RIVIERE -ABRI MONUMENT","",49.40577,3.14095,,,0,,,
02:01813,02:01813,"MERCIN ET V. - 4 AV DE COMPIEGNE","",49.38186,3.2851,,,0,,,
02:01815,02:01815,"AMBLENY - MAISON FAM PARK","",49.38001,3.18931,,,0,,,
02:01823,02:01823,"BIEUXY - PLACE","",49.44683,3.26127,,,0,,,
02:01842,02:01842,"CLAMECY - ABRI RUE DE LEURY","",49.42863,3.36037,,,0,,,
02:01848,02:01848,"VASSENY - PLACE ECOLE ABRI","",49.35273,3.48545,,,0,,,
02:01849,02:01849,"COURCELLES S/ V - ECOLE","",49.33872,3.57001,,,0,,,
02:01850,02:01850,"PAARS - ECOLE","",49.3295,3.60228,,,0,,,
02:01851,02:01851,"BAZOCHES S/ V. - PLACE ECOLE","",49.30698,3.61915,,,0,,,
02:01852,02:01852,"CHAVONNE - PLACE ECOLE","",49.40526,3.57058,,,0,,,
02:01865,02:01865,"SOUPIR - ECOLE","",49.40663,3.59583,,,0,,,
02:01867,02:01867,"BERNY RIVIERE - ROCHE","",49.40573,3.14616,,,0,,,
02:01868,02:01868,"BERNY RIVIERE - PLACE ECOLE","",49.41028,3.14046,,,0,,,
02:01870,02:01870,"ST CHRISTOPHE A - SACY ECOLE ABRI","",49.42707,3.11617,,,0,,,
02:01875,02:01875,"ST AUBIN - ECOLE PLACE","",49.50789,3.18959,,,0,,,
02:01876,02:01876,"SELENS - PLACE EGLISE","",49.50146,3.2088,,,0,,,
02:01877,02:01877,"ST PAUL A. - PLACE ECOLE ABRI","",49.53249,3.20474,,,0,,,
02:01881,02:01881,"FAVEROLLES - PLACE MAIRIE","",49.22519,3.17546,,,0,,,
02:01882,02:01882,"GOUY - PLACE ABRI","",50.00116,3.25304,,,0,,,
02:01883,02:01883,"DAMPLEUX - REGROUPEMENT SCOLAIRE","",49.24045,3.15893,,,0,,,
02:01885,02:01885,"AUBENCHEUL A. - PLACE ABRI","",50.02886,3.26635,,,0,,,
02:01886,02:01886,"ST QUENTIN - 4 COLONNES","",49.85223,3.28672,,,0,,,
02:01887,02:01887,"CAMELIN - ECOLE","",49.52559,3.1337,,,0,,,
02:01888,02:01888,"BESME - ABRI MAIRIE","",49.54025,3.16389,,,0,,,
02:01890,02:01890,"CONDE S/ S. - ECOLE","",49.41787,3.95051,,,0,,,
02:01891,02:01891,"PIGNICOURT - PLACE MAIRIE ABRI","",49.41493,4.03069,,,0,,,
02:01892,02:01892,"BERTRICOURT - MAIRIE ABRI","",49.39565,4.01017,,,0,,,
02:01893,02:01893,"ORAINVILLE - PLACE ABRI","",49.38064,4.0229,,,0,,,
02:01894,02:01894,"AGUILCOURT - MERLET FERME","",49.39639,3.9895,,,0,,,
02:01895,02:01895,"CESSIERES - ABRI","",49.55829,3.49662,,,0,,,
02:01896,02:01896,"SUZY - FERME ARDENNE","",49.55155,3.48305,,,0,,,
02:01897,02:01897,"FAUCOUCOURT - ECOLE ABRI","",49.53462,3.46524,,,0,,,
02:01898,02:01898,"FAUCOUCOURT - VILLAGE","",49.53464,3.46528,,,0,,,
02:01901,02:01901,"PREMONTRE - LOTISSEMENT ABRI","",49.53509,3.41507,,,0,,,
02:01903,02:01903,"BRANCOURT EN L. - LOTISSEMENT ABR","",49.51321,3.41655,,,0,,,
02:01904,02:01904,"ANIZY LE G. - CES","",49.51179,3.45196,,,0,,,
02:01905,02:01905,"BRGUIGNON /S M - ABRI","",49.52702,3.53757,,,0,,,
02:01906,02:01906,"MONTBAVIN - PLACE","",49.5227,3.52807,,,0,,,
02:01907,02:01907,"MONTBAVIN - MONTARCENE ABRI","",49.53043,3.51061,,,0,,,
02:01908,02:01908,"MERLIEUX ET F. - ABRI","",49.51673,3.50406,,,0,,,
02:01909,02:01909,"MERLIEUX ET F. - VALAVERGNY ABRI","",49.51436,3.4996,,,0,,,
02:01910,02:01910,"LIZY - PLACE ABRI","",49.51358,3.48203,,,0,,,
02:01911,02:01911,"ANIZY LE G.-EC BELLEUSE JEU PAUME","",49.50547,3.44723,,,0,,,
02:01914,02:01914,"PINON - GRAND ARRIVOIR","",49.4917,3.44322,,,0,,,
02:01915,02:01915,"PINON - VIEUX PINON ABRI","",49.48416,3.45745,,,0,,,
02:01916,02:01916,"PINON - ARRET 130 E RI","",49.49303,3.44266,,,0,,,
02:01917,02:01917,"PINON - GARE ARRET RTA","",49.49631,3.44845,,,0,,,
02:01919,02:01919,"VAUDESSON - CITE","",49.47466,3.48626,,,0,,,
02:01920,02:01920,"VAUDESSON - ABRI","",49.47016,3.48483,,,0,,,
02:01921,02:01921,"CHAILLEVOIS - 15 GRANDE RUE","",49.51287,3.52486,,,0,,,
02:01922,02:01922,"ROYAUCOURT ET C - PLA. MAIRIE ECO","",49.51134,3.53552,,,0,,,
02:01923,02:01923,"ROYAUCOURT ET C - CHAILVET GARE","",49.50653,3.54081,,,0,,,
02:01924,02:01924,"CHAVIGNON - LES BRUYERES ABRI","",49.48951,3.52123,,,0,,,
02:01925,02:01925,"CHAVIGNON - EGLISE ABRI","",49.47895,3.52185,,,0,,,
02:01926,02:01926,"PINON - ABRI PLACE CH. DE GAULLE","",49.48791,3.44757,,,0,,,
02:01927,02:01927,"VAUXAILLON - LOTI. DU MARAIS","",49.48222,3.41197,,,0,,,
02:01928,02:01928,"VAUXAILLON - PLACE ABRI","",49.47692,3.40665,,,0,,,
02:01929,02:01929,"ALLEMANT - ABRI","",49.46061,3.45178,,,0,,,
02:01932,02:01932,"NEUVILLE S/ M. - ABRI","",49.45251,3.40055,,,0,,,
02:01934,02:01934,"PINON - RUE DU PORT ABRI","",49.49901,3.45187,,,0,,,
02:01935,02:01935,"ANIZY LE G.  - EC. JACQUES BREL","",49.5037,3.45217,,,0,,,
02:01936,02:01936,"ANIZY LE G. - MATERNELLE","",49.50706,3.45215,,,0,,,
02:01938,02:01938,"CHEVREGNY - ABRI","",49.47273,3.59073,,,0,,,
02:01939,02:01939,"MONAMPTEUIL - ABRI","",49.47534,3.57301,,,0,,,
02:01940,02:01940,"MONAMPTEUIL - HOTEL DU LAC","",49.47396,3.55352,,,0,,,
02:01941,02:01941,"FILAIN - PLACE FACE MAIRIE","",49.45853,3.55727,,,0,,,
02:01942,02:01942,"PARGNY FILAIN - ABRI","",49.46388,3.54659,,,0,,,
02:01950,02:01950,"VERNEUIL S/ S. - ECOLE","",49.65185,3.67243,,,0,,,
02:01951,02:01951,"BARENTON CEL - ABRI","",49.64282,3.65385,,,0,,,
02:01955,02:01955,"PAISSY - ABRI","",49.42465,3.70535,,,0,,,
02:01956,02:01956,"BOURG ET C. - ECOLE","",49.3974,3.65298,,,0,,,
02:01958,02:01958,"MOLINCHART - ABRI","",49.56107,3.54008,,,0,,,
02:01959,02:01959,"MONS EN L. - PL DE LA MONCELLE","",49.53748,3.5568,,,0,,,
02:01960,02:01960,"MONS EN L. - ECOLE LEFEVRE","",49.53697,3.55186,,,0,,,
02:01961,02:01961,"BRGUIGNON /S M - ECOLE","",49.52769,3.5408,,,0,,,
02:01964,02:01964,"VAUCELLES ET B. - MAIRIE ABRI","",49.5297,3.55481,,,0,,,
02:01965,02:01965,"MONS EN L. - CITE ECOLE ABRI","",49.5395,3.57725,,,0,,,
02:01966,02:01966,"MONS EN L. - MONS CHAPPEE EC.","",49.54146,3.57861,,,0,,,
02:01967,02:01967,"MONS EN L. - LA CANOTTE","",49.54227,3.56757,,,0,,,
02:01968,02:01968,"CLACY ET T. - MAIRIE ECOLE ABRI","",49.54856,3.57102,,,0,,,
02:01969,02:01969,"CLACY ET T. - ABRI","",49.54471,3.57113,,,0,,,
02:01970,02:01970,"VAUCELLES ET B. - BEFFECOURT ABRI","",49.5233,3.552,,,0,,,
02:01974,02:01974,"COUCY LA V. - AUMONT ABRI","",49.53999,3.33806,,,0,,,
02:01975,02:01975,"SINCENY - X RD 937","",49.59325,3.2333,,,0,,,
02:01976,02:01976,"AUTREVILLE - PLACE MAIRIE","",49.58476,3.2398,,,0,,,
02:01977,02:01977,"PIERREMANDE - PLACE ABRI","",49.57151,3.24981,,,0,,,
02:01978,02:01978,"FOLEMBRAY - 7 RUE B. LEFEVRE","",49.54331,3.29224,,,0,,,
02:01980,02:01980,"COUCY LE C. - CES","",49.51933,3.31267,,,0,,,
02:01981,02:01981,"GUNY - PLACE ECOLE ABRI","",49.51908,3.2671,,,0,,,
02:01982,02:01982,"CHAMPS - MAIRIE ABRI","",49.5405,3.25446,,,0,,,
02:01983,02:01983,"CHAMPS - LE MARAIS","",49.53139,3.26882,,,0,,,
02:01984,02:01984,"CHAMPS - MICHETTES ABRI","",49.5208,3.28451,,,0,,,
02:01985,02:01985,"BASSOLES A. - ABRI PLACE MAIRIE","",49.52646,3.38002,,,0,,,
02:01986,02:01986,"QUINCY BASSE -ARRET RUE DU MOULIN","",49.51584,3.37778,,,0,,,
02:01987,02:01987,"QUINCY BASSE-ARRET RUE DU CHATEAU","",49.51558,3.37704,,,0,,,
02:01988,02:01988,"LANDRICOURT - MAIRIE","",49.50877,3.36705,,,0,,,
02:01989,02:01989,"LANDRICOURT - ARRET FACE EGLISE","",49.50767,3.36666,,,0,,,
02:01990,02:01990,"LANDRICOURT - HAMEAU COURSON","",49.48758,3.37557,,,0,,,
02:01992,02:01992,"JUMENCOURT - TREBECOURT","",49.51255,3.3434,,,0,,,
02:01993,02:01993,"COUCY LE C. - ECOLE MATERNELLE","",49.51935,3.31687,,,0,,,
02:01994,02:01994,"LEUILLY /S C. - ABRI","",49.47905,3.35799,,,0,,,
02:01995,02:01995,"LEUILLY /S C. - MONT DE LEUILLY","",49.47319,3.35496,,,0,,,
02:01996,02:01996,"LEUILLY /S C. - BANC DE PIERRE","",49.47503,3.34597,,,0,,,
02:01997,02:01997,"CRECY AU M. - PLACE ABRI","",49.48833,3.32412,,,0,,,
02:01998,02:01998,"CRECY AU M. - ABRI ROND POINT","",49.4942,3.33286,,,0,,,
02:01999,02:01999,"COUCY LA V. - EGLISE ABRI","",49.53224,3.32798,,,0,,,
02:02000,02:02000,"COUCY LA V. - FERME ROSIERE","",49.55094,3.35952,,,0,,,
02:02001,02:02001,"FRESNES /S C. - ABRI","",49.55373,3.36994,,,0,,,
02:02003,02:02003,"COUCY LE C. - HAUT ABRI","",49.52016,3.32403,,,0,,,
02:02004,02:02004,"GUNY - ECOLE MAT. ET ELEMENTAIRE","",49.51928,3.26691,,,0,,,
02:02005,02:02005,"CHAMPS - PRAAST ARRET","",49.55261,3.25197,,,0,,,
02:02006,02:02006,"LE RONSSOY - ABRI LIBERATION","",49.98754,3.16417,,,0,,,
02:02009,02:02009,"HARGICOURT - ABRI MAIRIE","",49.96165,3.18083,,,0,,,
02:02010,02:02010,"VILLERET - ABRI EGLISE","",49.95346,3.19205,,,0,,,
02:02011,02:02011,"PONTRU - LE GRAND PRIEL","",49.93297,3.18811,,,0,,,
02:02012,02:02012,"LE VERGUIER - EGLISE","",49.92499,3.16922,,,0,,,
02:02013,02:02013,"BLERANCOURT-ABRI RUE CRAPAUDIERE","",49.51248,3.15804,,,0,,,
02:02014,02:02014,"ST AUBIN - ABRI","",49.50971,3.18894,,,0,,,
02:02016,02:02016,"TROSLY LOIRE - PLACE ABRI","",49.51769,3.22675,,,0,,,
02:02018,02:02018,"PONTRU - ABRI M. AUX MORTS","",49.90448,3.21601,,,0,,,
02:02020,02:02020,"VERNEUIL S/C. - PLACE ABRI","",49.54166,3.31408,,,0,,,
02:02021,02:02021,"FOLEMBRAY - ABRI RUE CROIZAT","",49.53933,3.28539,,,0,,,
02:02023,02:02023,"BLERANCOURT - PLACE","",49.51682,3.15142,,,0,,,
02:02024,02:02024,"TROSLY LOIRE - FERME VALLON","",49.51872,3.24074,,,0,,,
02:02026,02:02026,"PONT ST M. - ECOLE","",49.49809,3.28635,,,0,,,
02:02027,02:02027,"COUCY LE C. - FERME NOGENTEL","",49.50882,3.30107,,,0,,,
02:02028,02:02028,"ST PAUL A. - SILO","",49.55699,3.20765,,,0,,,
02:02029,02:02029,"ST PAUL A. - X ABRI","",49.53232,3.19308,,,0,,,
02:02030,02:02030,"ST PAUL A. - FERME FAVETTE X","",49.53845,3.17991,,,0,,,
02:02032,02:02032,"CAMELIN - LE FRESNE ABRI","",49.52384,3.1418,,,0,,,
02:02033,02:02033,"CHIVRES EN L. - PLACE ABRI","",49.63359,3.84184,,,0,,,
02:02037,02:02037,"MONTIGNY LE F. - ECOLE","",49.68885,3.90851,,,0,,,
02:02038,02:02038,"MACHECOURT - ABRI","",49.65382,3.84003,,,0,,,
02:02044,02:02044,"MUSCOURT - MAIRIE ABRI","",49.36203,3.7473,,,0,,,
02:02045,02:02045,"MEURIVAL - ECOLE","",49.3583,3.76142,,,0,,,
02:02046,02:02046,"MAIZY - PLACE MAIRIE","",49.37663,3.7348,,,0,,,
02:02047,02:02047,"CUIRY LES C. - ABRI","",49.38611,3.7708,,,0,,,
02:02050,02:02050,"CORBENY - CES","",49.46061,3.82395,,,0,,,
02:02051,02:02051,"CORBENY - MAIRIE ECOLE ABRI","",49.46208,3.82209,,,0,,,
02:02052,02:02052,"AUBIGNY EN L. - PLACE ABRI","",49.49745,3.7909,,,0,,,
02:02053,02:02053,"AUBIGNY EN L. - HABITATION MEURI.","",49.49609,3.78043,,,0,,,
02:02054,02:02054,"AIZELLES - PLACE ABRI","",49.48874,3.8115,,,0,,,
02:02055,02:02055,"ST THOMAS - ABRI LAVOIR","",49.49687,3.81984,,,0,,,
02:02056,02:02056,"GOUDELANCOURT B - PLACE ABRI","",49.49648,3.84793,,,0,,,
02:02057,02:02057,"BERRIEUX - ABRI","",49.4875,3.84841,,,0,,,
02:02058,02:02058,"BERRIEUX - PLACE ABRI","",49.48755,3.84831,,,0,,,
02:02059,02:02059,"GERNICOURT - PLACE","",49.39964,3.87305,,,0,,,
02:02060,02:02060,"BOUFFIGNEREUX - ABRI PLACE MAIRIE","",49.37331,3.84451,,,0,,,
02:02061,02:02061,"GUYENCOURT - PLACE EGLISE","",49.35731,3.83701,,,0,,,
02:02062,02:02062,"ROUCY - ECOLE","",49.37757,3.81505,,,0,,,
02:02064,02:02064,"CONCEVREUX - ECOLE ABRI","",49.37654,3.78751,,,0,,,
02:02066,02:02066,"JUMIGNY - ABRI","",49.41042,3.71673,,,0,,,
02:02068,02:02068,"CUISSY ET G. - MAIRIE ABRI","",49.4092,3.70131,,,0,,,
02:02069,02:02069,"PARGNAN - ABRI","",49.40076,3.69527,,,0,,,
02:02070,02:02070,"OEUILLY - ABRI RUE DE PARGNAN","",49.39219,3.68854,,,0,,,
02:02071,02:02071,"BEAURIEUX - MAIRIE ECOLE","",49.39212,3.73622,,,0,,,
02:02072,02:02072,"VASSOGNE - ABRI","",49.42147,3.72733,,,0,,,
02:02073,02:02073,"OULCHES LA V. - MAIRIE ABRI","",49.42844,3.74614,,,0,,,
02:02074,02:02074,"CRAONNELLE - PLACE ABRI","",49.43108,3.7696,,,0,,,
02:02075,02:02075,"CRAONNE - MAIRIE","",49.43888,3.78585,,,0,,,
02:02076,02:02076,"VILLE B. LES P. - ABRI MAIRIE","",49.42692,3.85008,,,0,,,
02:02077,02:02077,"LIERVAL - ABRI","",49.48445,3.61577,,,0,,,
02:02080,02:02080,"COLLIGIS C. - CRANDELAIN ABRI","",49.46763,3.63126,,,0,,,
02:02081,02:02081,"COLLIGIS C. - X RD 19 RUE HAUTE","",49.46764,3.63127,,,0,,,
02:02083,02:02083,"PANCY C. - ABRI","",49.47378,3.65399,,,0,,,
02:02085,02:02085,"BIEVRES - MAIRIE ABRI","",49.4933,3.71011,,,0,,,
02:02086,02:02086,"MONTCHALONS - EGLISE","",49.51349,3.72657,,,0,,,
02:02087,02:02087,"ORGEVAL - EGLISE ABRI","",49.50794,3.70366,,,0,,,
02:02088,02:02088,"MARTIGNY C. - CELLIER","",49.5021,3.68511,,,0,,,
02:02089,02:02089,"MARTIGNY C. - MAIRIE ECOLE","",49.48939,3.67938,,,0,,,
02:02091,02:02091,"PLOYART ET V. - ABRI","",49.48802,3.74424,,,0,,,
02:02092,02:02092,"ARRANCY - MAIRIE","",49.49212,3.75418,,,0,,,
02:02094,02:02094,"MONTHENAULT - ABRI","",49.48605,3.66662,,,0,,,
02:02095,02:02095,"CERNY EN L. - PLACE MAIRIE ABRI","",49.4436,3.66777,,,0,,,
02:02097,02:02097,"NEUVILLE S/ A. - PLACE ABRI","",49.4663,3.69886,,,0,,,
02:02099,02:02099,"CHERMIZY A. - MAISON FORESTIERE","",49.46021,3.74241,,,0,,,
02:02100,02:02100,"BOUCONVILLE V. - ABRI","",49.4651,3.75527,,,0,,,
02:02101,02:02101,"BOUCONVILLE V. - N¿ 24 GRANDE RUE","",49.46513,3.75524,,,0,,,
02:02102,02:02102,"STE CROIX - EGLISE ABRI","",49.48144,3.78009,,,0,,,
02:02103,02:02103,"BEAURIEUX - BAS ABRI RUE DU PAVE","",49.39006,3.73472,,,0,,,
02:02104,02:02104,"CONCEVREUX - BLANC MONT","",49.39917,3.81912,,,0,,,
02:02105,02:02105,"CRAONNE - ECOLE ABRI","",49.43884,3.78603,,,0,,,
02:02106,02:02106,"PONTAVERT - MAISON FEUILLUE","",49.41617,3.80668,,,0,,,
02:02108,02:02108,"COUVRON ET A. - RTE POUILLY ABRI","",49.64636,3.52028,,,0,,,
02:02109,02:02109,"MONCEAU LES L. - ABRI MAIRIE","",49.67123,3.49354,,,0,,,
02:02110,02:02110,"CRECY S/ S. - COLLEGE","",49.69966,3.62367,,,0,,,
02:02111,02:02111,"POUILLY S/ S. - MAIRIE","",49.68289,3.58896,,,0,,,
02:02112,02:02112,"NOUVION ET C. - ABRI","",49.70306,3.48157,,,0,,,
02:02115,02:02115,"ASSIS S/ S. - ABRI","",49.68704,3.55862,,,0,,,
02:02116,02:02116,"VERNEUIL S/ S. - PLACE ABRI","",49.65018,3.67375,,,0,,,
02:02117,02:02117,"BARENTON S/ S. - ABRI","",49.67223,3.67986,,,0,,,
02:02118,02:02118,"MORTIERS - ECOLE ABRI","",49.68652,3.66769,,,0,,,
02:02119,02:02119,"MORTIERS - GARE","",49.69091,3.67872,,,0,,,
02:02120,02:02120,"DERCY - PLACE ABRI","",49.70313,3.68446,,,0,,,
02:02121,02:02121,"CHALANDRY - ABRI","",49.67781,3.6399,,,0,,,
02:02122,02:02122,"LA FERTE C. - MAIRIE","",49.73647,3.5585,,,0,,,
02:02124,02:02124,"LA FERTE C. - ECOLE MATERNELLE","",49.73724,3.55977,,,0,,,
02:02126,02:02126,"CRECY S/ S. - ECOLE PRIMAIRE","",49.69809,3.62395,,,0,,,
02:02128,02:02128,"MONTIGNY S/ C. - SALLE DES FETES","",49.71658,3.58558,,,0,,,
02:02129,02:02129,"PARGNY LES B. - ABRI EGLISE","",49.72613,3.62389,,,0,,,
02:02131,02:02131,"CUGNY - ECOLE","",49.70755,3.15556,,,0,,,
02:02132,02:02132,"CUGNY - RIEZ CALVAIRE X","",49.70078,3.15327,,,0,,,
02:02133,02:02133,"CUGNY - LA CERISAIE ABRI","",49.69165,3.15485,,,0,,,
02:02134,02:02134,"LA NEUVILLE EN B.- EC. PL. MAIRIE","",49.67571,3.15092,,,0,,,
02:02135,02:02135,"BEAUMONT EN B. - HABITATION VAREN","",49.68815,3.13186,,,0,,,
02:02136,02:02136,"BEAUMONT EN B. - MAIRIE ABRI","",49.69186,3.12982,,,0,,,
02:02146,02:02146,"NIZY LE C. - ECOLE","",49.56844,4.05531,,,0,,,
02:02147,02:02147,"LOR - ABRI RUE PRINCIPALE","",49.52992,4.04561,,,0,,,
02:02148,02:02148,"AMIFONTAINE - PLACE ABRI","",49.48297,3.91577,,,0,,,
02:02149,02:02149,"AMIFONTAINE - SALLE DES FETES","",49.48297,3.91577,,,0,,,
02:02150,02:02150,"JUVINCOURT ET D - CARREFOUR ABRI","",49.44788,3.89631,,,0,,,
02:02153,02:02153,"VILLENEUVE SUR A - CES","",49.43964,3.96569,,,0,,,
02:02155,02:02155,"LA MALMAISON - FERME ROBERCHAMPS","",49.50157,4.02985,,,0,,,
02:02158,02:02158,"PROUVAIS - PLACE ABRI","",49.46337,3.97574,,,0,,,
02:02159,02:02159,"PROUVAIS - ECOLE","",49.46354,3.97613,,,0,,,
02:02160,02:02160,"VILLENEUVES/A - PREVERT-RIMBAUD","",49.43846,3.97156,,,0,,,
02:02161,02:02161,"NEUFCHATEL S/ A - PLACE","",49.43184,4.03419,,,0,,,
02:02162,02:02162,"MENNEVILLE - FACE ABRI","",49.41931,4.00695,,,0,,,
02:02163,02:02163,"AGUILCOURT - PLACE ABRI","",49.40619,3.96613,,,0,,,
02:02168,02:02168,"MARCY /S M. - ECOLE","",49.74022,3.7354,,,0,,,
02:02169,02:02169,"ERLON - ECOLE","",49.72891,3.71475,,,0,,,
02:02170,02:02170,"ERLON - SALLE COMMUNALE","",49.72737,3.71472,,,0,,,
02:02171,02:02171,"VOYENNE - ECOLE","",49.72404,3.73087,,,0,,,
02:02172,02:02172,"HAPPENCOURT - PLACE ABRI","",49.77715,3.1876,,,0,,,
02:02173,02:02173,"SERAUCOURT LE G - FACE ABRI MAIRI","",49.78113,3.21199,,,0,,,
02:02174,02:02174,"SERAUCOURT LE G -10 RUE H. POIZOT","",49.77828,3.21124,,,0,,,
02:02175,02:02175,"ARTEMPS - PLACE ECOLE ABRI","",49.76624,3.19315,,,0,,,
02:02176,02:02176,"ARTEMPS - CARREFOUR ABRI","",49.7618,3.18822,,,0,,,
02:02177,02:02177,"ST SIMON - ABRI LOTISSEMENT","",49.74597,3.18016,,,0,,,
02:02178,02:02178,"ST SIMON - AVESNE ABRI","",49.74441,3.18874,,,0,,,
02:02179,02:02179,"ST SIMON - PLACE ABRI EGLISE","",49.74361,3.17203,,,0,,,
02:02183,02:02183,"CUGNY - ABRI MAIRIE EGLISE","",49.70751,3.15511,,,0,,,
02:02193,02:02193,"FLAVY LE M. - MAIRIE","",49.7133,3.19106,,,0,,,
02:02194,02:02194,"REMIGNY - ABRI EGLISE","",49.71876,3.29049,,,0,,,
02:02195,02:02195,"CLASTRES - ABRI","",49.74558,3.23459,,,0,,,
02:02197,02:02197,"MONTESCOURT L. - 7 AV VICTOIRE","",49.73565,3.24735,,,0,,,
02:02198,02:02198,"MONTESCOURT L.-ABRI 45 AV VICTOIR","",49.73566,3.24743,,,0,,,
02:02199,02:02199,"JUSSY - ABRI 6 AVE DE LA VICTOIRE","",49.72276,3.23313,,,0,,,
02:02200,02:02200,"JUSSY - LA ROTONDE ABRI","",49.71761,3.22658,,,0,,,
02:02201,02:02201,"LEUILLY /S C. - CAFE","",49.48035,3.35865,,,0,,,
02:02204,02:02204,"TUGNY ET P. - PONT DE TUGNY","",49.75861,3.16519,,,0,,,
02:02205,02:02205,"TUGNY ET P. - LAVESNES ABRI","",49.77024,3.14693,,,0,,,
02:02206,02:02206,"BRAY ST C. - ABRI","",49.77087,3.14422,,,0,,,
02:02207,02:02207,"DURY - ECOLE","",49.74942,3.13039,,,0,,,
02:02208,02:02208,"OLLEZY - ECOLE ABRI","",49.73453,3.14395,,,0,,,
02:02209,02:02209,"ANNOIS - ABRI","",49.71911,3.1781,,,0,,,
02:02210,02:02210,"FRIERES F. - FAILLOUEL ABRI","",49.68769,3.2203,,,0,,,
02:02211,02:02211,"FRIERES F. - FRIERES EGLISE","",49.68672,3.23803,,,0,,,
02:02212,02:02212,"TUGNY ET P. - ABRI","",49.75735,3.15487,,,0,,,
02:02226,02:02226,"VESLES ET C. - ABRI","",49.67015,3.78508,,,0,,,
02:02227,02:02227,"PIERREPONT EN L - ECOLE ABRI","",49.65423,3.79257,,,0,,,
02:02228,02:02228,"MISSY LES P. - ECOLE","",49.63289,3.78553,,,0,,,
02:02229,02:02229,"GRANDLUP ET F. - ABRI","",49.65748,3.73792,,,0,,,
02:02230,02:02230,"FROIDMONT C. - COHARTILLE ECOLE","",49.67893,3.69531,,,0,,,
02:02231,02:02231,"FROIDMONT C. - FROIDMONT ABRI","",49.68599,3.70822,,,0,,,
02:02232,02:02232,"MARLE - EC. PRIM J. FERRY","",49.73855,3.77335,,,0,,,
02:02233,02:02233,"MARLE - COLLEGE","",49.73561,3.77135,,,0,,,
02:02234,02:02234,"TOULIS ET A. - ABRI","",49.69987,3.74409,,,0,,,
02:02235,02:02235,"AUTREMENCOURT - PLACE ABRI","",49.70437,3.78672,,,0,,,
02:02239,02:02239,"MARLE - ECOLE BOIS JOLI","",49.73705,3.77288,,,0,,,
02:02240,02:02240,"THIERNU - PLACE ABRI","",49.76119,3.79042,,,0,,,
02:02241,02:02241,"ROGNY - MAIRIE ABRI","",49.76903,3.81021,,,0,,,
02:02244,02:02244,"SONS ET R. - FACE 12 RUE MOULIN","",49.76135,3.67485,,,0,,,
02:02245,02:02245,"MARCY /S M. - MAIRIE","",49.73842,3.7377,,,0,,,
02:02246,02:02246,"ROGNY - PARKING RD617","",49.77251,3.80127,,,0,,,
02:02247,02:02247,"MARLE - GARE","",49.74695,3.76985,,,0,,,
02:02249,02:02249,"LA NEUVILLE B. - ABRI","",49.71341,3.83981,,,0,,,
02:02250,02:02250,"ST PIERREMONT - FACE ABRI","",49.72345,3.88049,,,0,,,
02:02252,02:02252,"BOSMONT S/ S. - FERME DU MOULIN","",49.73368,3.8473,,,0,,,
02:02253,02:02253,"CILLY - PLACE ABRI","",49.73847,3.83227,,,0,,,
02:02255,02:02255,"MONTIGNY /S M. - ABRI PL VERDUN","",49.74789,3.79121,,,0,,,
02:02257,02:02257,"LUGNY - ECOLE","",49.77806,3.80639,,,0,,,
02:02262,02:02262,"MAROLLES - ABRI PRECY A MONT","",49.18219,3.10751,,,0,,,
02:02263,02:02263,"MAROLLES - ABRI ECOLE","",49.17053,3.10371,,,0,,,
02:02265,02:02265,"MAROLLES - D 83 X D 936","",49.14981,3.10845,,,0,,,
02:02266,02:02266,"MAROLLES - VAUX PARFONDS","",49.15483,3.13423,,,0,,,
02:02267,02:02267,"MAROLLES - CHATEAU D'EAU","",49.15509,3.12397,,,0,,,
02:02268,02:02268,"MAROLLES - BOURNEVILLE","",49.15611,3.11089,,,0,,,
02:02269,02:02269,"FRIERES F. - FAILLOUEL ECOLE","",49.6888,3.21938,,,0,,,
02:02270,02:02270,"FRIERES F. - ECOLE","",49.68672,3.238,,,0,,,
02:02272,02:02272,"VIGNEUX H. - AIRE RET. HOCQUET","",49.75875,4.00338,,,0,,,
02:02273,02:02273,"VIGNEUX H. - HOCQUET EC. ABRI","",49.75164,4.00088,,,0,,,
02:02274,02:02274,"VIGNEUX H. - CARREFOUR ABRI","",49.73931,3.99018,,,0,,,
02:02275,02:02275,"AGNICOURT ET S. - ECOLE","",49.71729,3.95425,,,0,,,
02:02279,02:02279,"CHAOURSE - 1 RUE DES CHENES","",49.69748,3.99922,,,0,,,
02:02280,02:02280,"MONTCORNET - CES","",49.69118,4.02223,,,0,,,
02:02281,02:02281,"BERLISE - COLORU","",49.66017,4.10665,,,0,,,
02:02282,02:02282,"BERLISE - ECOLE","",49.66314,4.10691,,,0,,,
02:02283,02:02283,"NOIRCOURT - RUE DE BERLISE","",49.66484,4.09095,,,0,,,
02:02284,02:02284,"LE THUEL - CARREFOUR","",49.64965,4.07717,,,0,,,
02:02285,02:02285,"MONTLOUE - MAIRIE ECOLE","",49.67399,4.06992,,,0,,,
02:02286,02:02286,"SOIZE - ABRI","",49.70136,4.08266,,,0,,,
02:02287,02:02287,"VINCY REUIL E. - REUIL MONUMENT","",49.715,4.05374,,,0,,,
02:02288,02:02288,"VINCY REUIL E. - VINCY ABRI","",49.7052,4.03144,,,0,,,
02:02289,02:02289,"CHAOURSE - USINE MATT","",49.70187,4.01789,,,0,,,
02:02290,02:02290,"DIZY LE G. - EGLISE ABRI","",49.62981,4.02161,,,0,,,
02:02292,02:02292,"MONTCORNET - EP RTE DE LISLET","",49.69283,4.01818,,,0,,,
02:02293,02:02293,"VILLE B. LES D. - ABRI MAIRIE","",49.66092,3.99283,,,0,,,
02:02294,02:02294,"TAVAUX ET P. - FACE ABRI PLACE","",49.73026,3.90237,,,0,,,
02:02298,02:02298,"MONTIGNY LE F. - ABRI","",49.68907,3.91138,,,0,,,
02:02299,02:02299,"GOUDELANCOURT LES P - ABRI","",49.66914,3.85353,,,0,,,
02:02300,02:02300,"EBOULEAU - GRANDE RUE ECOLE","",49.67198,3.87529,,,0,,,
02:02301,02:02301,"BUCY LES P. - GARE","",49.6563,3.89651,,,0,,,
02:02302,02:02302,"BUCY LES P. - PLACE ABRI","",49.64646,3.90113,,,0,,,
02:02304,02:02304,"MONTCORNET - ECOLE PRIMAIRE","",49.69412,4.01809,,,0,,,
02:02305,02:02305,"MONTCORNET - ECOLE MATERNELLE","",49.69498,4.01737,,,0,,,
02:02306,02:02306,"LISLET - CARREFOUR","",49.68587,4.02197,,,0,,,
02:02307,02:02307,"MONTLOUE - ABRI PLACE","",49.67339,4.07056,,,0,,,
02:02308,02:02308,"LE THUEL - ECOLE ABRI","",49.64827,4.07598,,,0,,,
02:02309,02:02309,"LISLET - ECOLE","",49.68521,4.02157,,,0,,,
02:02310,02:02310,"VIGNEUX H. - VIGNEUX F. RIFFLART","",49.7361,3.98593,,,0,,,
02:02311,02:02311,"VIGNEUX H. - ECOLE","",49.74012,3.992,,,0,,,
02:02312,02:02312,"ANGUILCOURT L. - MAIRIE ECOLE ABR","",49.68985,3.43399,,,0,,,
02:02313,02:02313,"ANGUILCOURT L. - ECOLE MATERNELLE","",49.68926,3.43271,,,0,,,
02:02315,02:02315,"NOUVION ET C. - ECOLE","",49.70186,3.48504,,,0,,,
02:02316,02:02316,"NOUVION ET C-PT A BUCY 1 PONCEAUX","",49.68991,3.48523,,,0,,,
02:02317,02:02317,"ROZOY S/ S. - ARRET ST GEORGES","",49.72868,4.12156,,,0,,,
02:02319,02:02319,"ROZOY S/ S. - CHAPELLE APREMONT","",49.71858,4.15538,,,0,,,
02:02320,02:02320,"ARCHON - ABRI","",49.73955,4.11767,,,0,,,
02:02321,02:02321,"PARFONDEVAL - PLACE ECOLE","",49.7395,4.15875,,,0,,,
02:02322,02:02322,"ROUVROY S/ S. - ABRI","",49.71981,4.17423,,,0,,,
02:02323,02:02323,"RAILLIMONT - PLACE","",49.70721,4.15197,,,0,,,
02:02324,02:02324,"GRANDRIEUX - MAIRIE ECOLE","",49.73053,4.18617,,,0,,,
02:02325,02:02325,"RESIGNY - MAIRIE","",49.73771,4.20666,,,0,,,
02:02326,02:02326,"RESIGNY - HAMEAU DE LA GARE","",49.72356,4.20487,,,0,,,
02:02327,02:02327,"RESIGNY - CENTRE PLANCHE S","",49.73045,4.2215,,,0,,,
02:02328,02:02328,"RESIGNY - FERME GRATREUX","",49.74759,4.21877,,,0,,,
02:02329,02:02329,"LES AUTELS - CARRF HT CHEMIN","",49.75543,4.22707,,,0,,,
02:02330,02:02330,"LES AUTELS - ECOLE PLACE","",49.76355,4.22509,,,0,,,
02:02331,02:02331,"MONT ST J. - ABRI","",49.78928,4.20884,,,0,,,
02:02332,02:02332,"BRUNEHAMEL - ECOLES","",49.77027,4.18067,,,0,,,
02:02333,02:02333,"GRANDRIEUX - GARDE DE DIEU","",49.73542,4.17413,,,0,,,
02:02334,02:02334,"ROZOY S/ S. - CES","",49.70759,4.13511,,,0,,,
02:02335,02:02335,"DAGNY LAMBERCY - ECOLE","",49.77294,4.04256,,,0,,,
02:02336,02:02336,"DAGNY LAMBERCY - LAMBERCY ABRI","",49.78009,4.04444,,,0,,,
02:02337,02:02337,"COINGT - ABRI","",49.79316,4.09141,,,0,,,
02:02338,02:02338,"COINGT - ABRI RINGEAT","",49.78589,4.09771,,,0,,,
02:02339,02:02339,"COINGT - LA CROISETTE ABRI","",49.79464,4.10587,,,0,,,
02:02340,02:02340,"IVIERS - ABRI MAIRIE","",49.78372,4.14528,,,0,,,
02:02341,02:02341,"DOHIS - ECOLE ABRI","",49.76222,4.14012,,,0,,,
02:02342,02:02342,"CUIRY LES I. - ABRI","",49.76171,4.11157,,,0,,,
02:02343,02:02343,"ST CLEMENT - PLACE","",49.77527,4.07115,,,0,,,
02:02344,02:02344,"MORGNY EN T. - ABRI","",49.75999,4.07629,,,0,,,
02:02345,02:02345,"RENNEVAL - ECOLE ABRI","",49.74047,4.04842,,,0,,,
02:02346,02:02346,"STE GENEVIEVE - ABRI","",49.71967,4.07476,,,0,,,
02:02347,02:02347,"DOLIGNON - ABRI","",49.73016,4.08472,,,0,,,
02:02348,02:02348,"CHERY LES R. - ABRI","",49.71984,4.09104,,,0,,,
02:02349,02:02349,"CHERY LES R. - LA HALTE","",49.71963,4.09527,,,0,,,
02:02350,02:02350,"RESIGNY - ECOLE","",49.73796,4.20653,,,0,,,
02:02351,02:02351,"ST GOBAIN - COLLEGE","",49.59109,3.3777,,,0,,,
02:02354,02:02354,"BARISIS AUX B. - RUE DES DAMES","",49.57835,3.33599,,,0,,,
02:02358,02:02358,"ST GOBAIN - ECOLE GIBON  R.GIBON","",49.59441,3.3781,,,0,,,
02:02359,02:02359,"ST GOBAIN - MATERNELLE","",49.59134,3.37749,,,0,,,
02:02361,02:02361,"URCEL - ECOLE ABRI","",49.48949,3.55926,,,0,,,
02:02362,02:02362,"MAUREGNY EN H. - ABRI","",49.5311,3.79392,,,0,,,
02:02363,02:02363,"COUCY LES EPPES - FACE ABRI GARE","",49.55673,3.77375,,,0,,,
02:02364,02:02364,"SISSONNE - COLLEGE","",49.56649,3.8991,,,0,,,
02:02365,02:02365,"COURTRIZY ET F. - PLACE","",49.52029,3.78945,,,0,,,
02:02366,02:02366,"MONTAIGU - EGLISE ABRI","",49.53559,3.82709,,,0,,,
02:02369,02:02369,"GIZY - FACE ABRI 14 RUE DE LA GAR","",49.60813,3.7923,,,0,,,
02:02370,02:02370,"ST ERME O. - ST ERME ABRI","",49.51621,3.84254,,,0,,,
02:02371,02:02371,"ST ERME O. - ECOLE OUTRE ABRI","",49.51096,3.84757,,,0,,,
02:02373,02:02373,"MARCHAIS - ECOLE","",49.58367,3.81665,,,0,,,
02:02374,02:02374,"LIESSE - ABRI","",49.60922,3.80325,,,0,,,
02:02375,02:02375,"ST ERME O. - GARE SNCF","",49.52684,3.85697,,,0,,,
02:02376,02:02376,"ST ERME O. - CITE GARENNES","",49.53358,3.86431,,,0,,,
02:02377,02:02377,"MONTAIGU - LES AGASSES","",49.54968,3.87617,,,0,,,
02:02381,02:02381,"BONCOURT - ABRI","",49.61628,3.94607,,,0,,,
02:02382,02:02382,"LAPPION - PLACE ABRI","",49.60766,3.96187,,,0,,,
02:02385,02:02385,"SUZY - LE TROUFOURCI","",49.55913,3.4645,,,0,,,
02:02386,02:02386,"BEAUREVOIR - PLACE MONUMENT","",49.99676,3.3085,,,0,,,
02:02387,02:02387,"BEAUREVOIR - CALVAIRE","",49.99461,3.31385,,,0,,,
02:02389,02:02389,"MONTBREHAIN - PLACE MAIRIE ABRI","",49.96664,3.35191,,,0,,,
02:02390,02:02390,"BRANCOURT LE G. - MAIRIE","",49.97625,3.38172,,,0,,,
02:02391,02:02391,"FRESNOY LE G. - PLACE PRELET","",49.94965,3.41246,,,0,,,
02:02392,02:02392,"FRESNOY LE G. - PLACE VATIN","",49.9491,3.41662,,,0,,,
02:02394,02:02394,"FONTAINE U. - MAIRIE ABRI","",49.92173,3.37095,,,0,,,
02:02397,02:02397,"FONSOMMES - ABRI  MAIRIE ECOLE","",49.90202,3.39885,,,0,,,
02:02398,02:02398,"CHAMOUILLE - ECOLE","",49.47142,3.66822,,,0,,,
02:02401,02:02401,"CERNY EN L. - GOLF DE L'AILETTE","",49.45911,3.66902,,,0,,,
02:02402,02:02402,"AMIFONTAINE - ECOLE","",49.48297,3.91577,,,0,,,
02:02404,02:02404,"ESSIGNY LE P. - ABRI EGLISE","",49.89936,3.36723,,,0,,,
02:02405,02:02405,"REMAUCOURT - ABRI PLACE","",49.89566,3.34057,,,0,,,
02:02406,02:02406,"LESDINS - ABRI CAFE","",49.89644,3.3261,,,0,,,
02:02407,02:02407,"LESDINS - ABRI PONT CANAL","",49.8914,3.31708,,,0,,,
02:02408,02:02408,"OMISSY - ABRI","",49.87969,3.31298,,,0,,,
02:02409,02:02409,"AGNICOURT ET S. - SECHELLES PLACE","",49.71157,3.97727,,,0,,,
02:02410,02:02410,"AGNICOURT ET S. - LES LEGERES","",49.71569,3.97145,,,0,,,
02:02423,02:02423,"REMIGNY - MAIRIE ECOLE","",49.71993,3.28877,,,0,,,
02:02424,02:02424,"VENDEUIL - ECOLE","",49.71462,3.35284,,,0,,,
02:02426,02:02426,"MONTAIGU - ECOLE","",49.53408,3.8273,,,0,,,
02:02427,02:02427,"MAUREGNY EN H. - MAIRIE ECOLE","",49.5312,3.79309,,,0,,,
02:02428,02:02428,"MAUREGNY EN H. - ECOLE MATERNELLE","",49.53225,3.79777,,,0,,,
02:02430,02:02430,"LA SELVE - ECOLE","",49.56994,3.99686,,,0,,,
02:02431,02:02431,"LAPPION - ECOLE","",49.60761,3.96131,,,0,,,
02:02441,02:02441,"MESBRECOURT R. - ABRI 14 GRD RUE","",49.70294,3.54302,,,0,,,
02:02444,02:02444,"FROIDMONT C. - ECOLE FROIDMONT","",49.68579,3.7091,,,0,,,
02:02453,02:02453,"CRECY AU M. - ECOLE","",49.48843,3.32424,,,0,,,
02:02455,02:02455,"BUCY LES P. - ECOLE","",49.64608,3.90001,,,0,,,
02:02456,02:02456,"LEHAUCOURT - PLACE ABRI","",49.91829,3.27848,,,0,,,
02:02457,02:02457,"LESDINS -ABRI  RUE DE TOURAINE","",49.89588,3.3192,,,0,,,
02:02458,02:02458,"LESDINS - LE TRONQUOY","",49.9096,3.29455,,,0,,,
02:02459,02:02459,"MORCOURT - ABRI PLACE","",49.87577,3.32308,,,0,,,
02:02460,02:02460,"HARLY - COLLEGE","",49.84342,3.3167,,,0,,,
02:02461,02:02461,"SERAIN - PLACE ABRI","",50.02755,3.36704,,,0,,,
02:02462,02:02462,"PREMONT - ARRET CAFE","",50.0101,3.4013,,,0,,,
02:02463,02:02463,"FRESNOY LE G. - COLLEGE","",49.94919,3.41914,,,0,,,
02:02466,02:02466,"ETAVES ET B. - EGLISE","",49.93913,3.4557,,,0,,,
02:02467,02:02467,"ETAVES ET B. - STADE","",49.93494,3.45026,,,0,,,
02:02468,02:02468,"ETAVES ET B. - PLACE BOCQUIAUX","",49.93124,3.44252,,,0,,,
02:02470,02:02470,"OMISSY - VILLAGE","",49.87933,3.31255,,,0,,,
02:02471,02:02471,"ESSIGNY LE P. - ABRI ECOLE","",49.89903,3.36544,,,0,,,
02:02472,02:02472,"FONSOMMES - 21 GRAND PLACE","",49.90131,3.39889,,,0,,,
02:02473,02:02473,"SEBONCOURT - SALLE DES FETES","",49.95375,3.4795,,,0,,,
02:02474,02:02474,"SEBONCOURT - PHARMACIE","",49.9522,3.46843,,,0,,,
02:02475,02:02475,"SEBONCOURT - CAFE STATION","",49.95387,3.47908,,,0,,,
02:02476,02:02476,"PREMONT - MAIRIE ABRI","",50.01431,3.39289,,,0,,,
02:02477,02:02477,"PREMONT-BOIS MIRAND 34 RUE BOHAIN","",50.0102,3.40111,,,0,,,
02:02480,02:02480,"COUCY LE C. - HOTEL LION ROUGE","",49.51628,3.32156,,,0,,,
02:02481,02:02481,"COUCY LE C. - 50 RUE  FRAMLINGHAM","",49.52402,3.31582,,,0,,,
02:02493,02:02493,"FLAVY LE M. - ABRI CENTRE","",49.71295,3.19183,,,0,,,
02:02494,02:02494,"MONTESCOURT L -ABRI 48 AV VICTOIR","",49.73524,3.24716,,,0,,,
02:02495,02:02495,"MONTES. LIZ. -ABRI SQUARE SEBLINE","",49.7387,3.25756,,,0,,,
02:02497,02:02497,"ESSIGNY LE G. - RUE DU MOULIN","",49.77859,3.28039,,,0,,,
02:02498,02:02498,"URVILLERS - ABRI","",49.79032,3.30951,,,0,,,
02:02499,02:02499,"ST QUENTIN - PATTE D'OIE","",49.83171,3.30754,,,0,,,
02:02500,02:02500,"ST QUENTIN - PLACE LAFAYETTE","",49.85096,3.28739,,,0,,,
02:02501,02:02501,"ST QUENTIN - J CURIE LY CONDORCET","",49.85911,3.29362,,,0,,,
02:02502,02:02502,"LEUILLY /S C. - PLACE ECOLE ABRI","",49.47873,3.35801,,,0,,,
02:02503,02:02503,"ST QUENTIN - LA RAMEE R. BELLEVUE","",49.85297,3.29966,,,0,,,
02:02506,02:02506,"HARLY - CITE DUCRUET","",49.84091,3.31949,,,0,,,
02:02507,02:02507,"HOMBLIERES - RUE LOUIS BACHY","",49.84703,3.37004,,,0,,,
02:02508,02:02508,"FONTAINE N.D. - ABRI MAIRIE","",49.88429,3.43022,,,0,,,
02:02509,02:02509,"FIEULAINE - PLACE","",49.89938,3.44943,,,0,,,
02:02510,02:02510,"MONTIGNY EN A. - ECOLE","",49.906,3.47578,,,0,,,
02:02511,02:02511,"AISONVILLE ET B - ABRI MAIRIE","",49.93111,3.51495,,,0,,,
02:02516,02:02516,"FLAVY LE M. - PLACE","",49.71331,3.19102,,,0,,,
02:02517,02:02517,"FLAVY LE M. - GARE SNCF X","",49.71819,3.19055,,,0,,,
02:02519,02:02519,"ST SIMON - ARRET TRANSFO.","",49.75001,3.18004,,,0,,,
02:02520,02:02520,"ST SIMON - CAFE","",49.74253,3.17313,,,0,,,
02:02521,02:02521,"SERAUCOURT LE G -ABRI 7 RUE HAMEL","",49.78569,3.20903,,,0,,,
02:02524,02:02524,"DALLON - ABRI PLACE","",49.81993,3.24198,,,0,,,
02:02527,02:02527,"ST QUENTIN - BASILIQUE","",49.84695,3.28952,,,0,,,
02:02528,02:02528,"GAUCHY - BOIS DE BOULOGNE","",49.83379,3.2889,,,0,,,
02:02529,02:02529,"GAUCHY - RUE DES MARAIS","",49.8302,3.28524,,,0,,,
02:02530,02:02530,"GAUCHY - COLLEGE","",49.82771,3.28984,,,0,,,
02:02531,02:02531,"GAUCHY - PLATEAUX","",49.82501,3.27221,,,0,,,
02:02532,02:02532,"GAUCHY - EGLISE","",49.82313,3.26934,,,0,,,
02:02533,02:02533,"GRUGIES - ABRI 48 RUE DE PICARDIE","",49.81553,3.26373,,,0,,,
02:02538,02:02538,"ST QUENTIN - C.HANOTAUX","",49.8607,3.27254,,,0,,,
02:02540,02:02540,"SEQUEHART - ABRI","",49.93004,3.33531,,,0,,,
02:02541,02:02541,"ST QUENTIN - B. SCHUMAN CONDORCET","",49.85923,3.29539,,,0,,,
02:02543,02:02543,"FRESNOY LE G. - ECOLE LEVAUFRE","",49.94573,3.41297,,,0,,,
02:02546,02:02546,"CELLES S/ A. - FERME RUE FONT.","",49.40718,3.48144,,,0,,,
02:02547,02:02547,"VAILLY S/ A. - ECOLE MATERNELLE","",49.40664,3.51988,,,0,,,
02:02549,02:02549,"CHIVRES VAL - ABRI PLACE ECOLE","",49.39509,3.43533,,,0,,,
02:02565,02:02565,"CHACRISE - ABRI","",49.30539,3.4037,,,0,,,
02:02567,02:02567,"HARTENNES ET T. - ABRI PLACE","",49.26965,3.35356,,,0,,,
02:02568,02:02568,"JUMENCOURT - MAIRIE ABRI","",49.50895,3.35455,,,0,,,
02:02569,02:02569,"PONT ST M. - ABRI","",49.50128,3.28494,,,0,,,
02:02574,02:02574,"ANIZY LE G. - PARKING LEBAS AB","",49.51203,3.45278,,,0,,,
02:02576,02:02576,"CHIVY LES E. - PLACE ABRI","",49.52774,3.58463,,,0,,,
02:02577,02:02577,"CHAVIGNON - LES VALLONS","",49.48157,3.50459,,,0,,,
02:02578,02:02578,"CHAILLEVOIS - 17 RUE D'ANIZY","",49.51166,3.52531,,,0,,,
02:02580,02:02580,"MONS EN L. - SEVP","",49.54373,3.57856,,,0,,,
02:02585,02:02585,"LA FERE - ROUTE DE LAON PM","",49.65993,3.38176,,,0,,,
02:02591,02:02591,"VILLERET - ECOLE ABRI","",49.95346,3.19205,,,0,,,
02:02592,02:02592,"BONY - 3 RUE DE MACQUIN","",49.9879,3.2222,,,0,,,
02:02593,02:02593,"BEAUREVOIR - CES","",49.99523,3.31753,,,0,,,
02:02594,02:02594,"VENDHUILE - PL. ECOLE ABRI","",50.01249,3.21156,,,0,,,
02:02595,02:02595,"VENDHUILE - LA TERRIERE ABRI","",50.03263,3.2287,,,0,,,
02:02596,02:02596,"GOUY - RUE GEANT ABRI","",50.00297,3.25585,,,0,,,
02:02597,02:02597,"BELLICOURT - PLACE ABRI","",49.96113,3.23177,,,0,,,
02:02598,02:02598,"LE CATELET - ABRI MAIRIE","",50.00256,3.24559,,,0,,,
02:02600,02:02600,"BOHAIN EN V. - PARKING LE ROYAL","",49.98366,3.45648,,,0,,,
02:02601,02:02601,"BEAUREVOIR - HAMEAU DE PONCHA","",49.99521,3.33111,,,0,,,
02:02602,02:02602,"JONCOURT - WIANCOURT","",49.9675,3.31481,,,0,,,
02:02603,02:02603,"BEAUREVOIR - MATERNELLE","",49.99582,3.31499,,,0,,,
02:02604,02:02604,"BEAUREVOIR - GROUPE SCOLAIRE","",49.99674,3.30868,,,0,,,
02:02605,02:02605,"PREMONT - 51 R.LARGILLIERE","",50.00615,3.39153,,,0,,,
02:02607,02:02607,"BRANCOURT LE G. - ABRI","",49.97628,3.38185,,,0,,,
02:02608,02:02608,"WASSIGNY - COLLEGE + PRIMAIRE","",50.01342,3.59959,,,0,,,
02:02609,02:02609,"HANNAPES - PLACE ABRI","",49.97261,3.6252,,,0,,,
02:02610,02:02610,"OISY - CARREFOUR RN ABRI","",50.02126,3.66236,,,0,,,
02:02613,02:02613,"MENNEVRET - PLACE ABRI","",49.98297,3.55476,,,0,,,
02:02614,02:02614,"LA VALLEE M. - ABRI","",50.02027,3.55837,,,0,,,
02:02615,02:02615,"ST MARTIN R. - ECOLE","",50.04385,3.54014,,,0,,,
02:02616,02:02616,"MOLAIN - PLACE ABRI","",50.03215,3.53544,,,0,,,
02:02617,02:02617,"VAUX ANDIGNY - PLACE MAIRIE","",50.02374,3.51381,,,0,,,
02:02618,02:02618,"FLAVY LE M. - CES","",49.70847,3.19364,,,0,,,
02:02619,02:02619,"ST SIMON - POINT Y","",49.74111,3.17134,,,0,,,
02:02620,02:02620,"ST SIMON - ARRET CSQT","",49.74501,3.17506,,,0,,,
02:02622,02:02622,"REMIGNY - BAS ABRI","",49.7182,3.28545,,,0,,,
02:02623,02:02623,"FONTAINE LES C. - ABRI AIRE DE RE","",49.80161,3.22045,,,0,,,
02:02625,02:02625,"CASTRES - ABRI MAIRIE ECOLE","",49.8041,3.23856,,,0,,,
02:02626,02:02626,"CONTESCOURT - ABRI","",49.79288,3.23157,,,0,,,
02:02630,02:02630,"REMAUCOURT -ABRI MONUMENT","",49.8957,3.34061,,,0,,,
02:02632,02:02632,"ROUVROY - LA GLORIETTE","",49.86636,3.31705,,,0,,,
02:02633,02:02633,"ROUVROY - 18 RUE LOUIS PLANCHON","",49.85613,3.31843,,,0,,,
02:02634,02:02634,"FRANCILLY S. - MAISON ROUGE","",49.83984,3.22279,,,0,,,
02:02645,02:02645,"VILLERS ST C. - ABRI RUE L'EGLISE","",49.77941,3.09344,,,0,,,
02:02660,02:02660,"LANCHY - X RUE ST MEDARD/BEAUVOIS","",49.82684,3.07626,,,0,,,
02:02662,02:02662,"TREFCON - FACE ABRI","",49.85751,3.09646,,,0,,,
02:02664,02:02664,"HAM - CES","",49.75193,3.07916,,,0,,,
02:02665,02:02665,"HAM - INST NOTRE DAME BD REPUBLIQ","",49.74951,3.07348,,,0,,,
02:02666,02:02666,"HARLY - ECOLE JEAN ZAY","",49.84313,3.31869,,,0,,,
02:02667,02:02667,"MESNIL ST L. - 22 GRANGE AUX BOIS","",49.82981,3.35592,,,0,,,
02:02670,02:02670,"HOMBLIERES - PHARMACIE","",49.84737,3.36933,,,0,,,
02:02671,02:02671,"HOMBLIERES - EGLISE ABRI","",49.84986,3.36392,,,0,,,
02:02674,02:02674,"NEUVILLE ST A. - ECOLE PONT GUISE","",49.82639,3.3095,,,0,,,
02:02678,02:02678,"BRISSAY C. - ECOLE ABRI","",49.72121,3.37842,,,0,,,
02:02680,02:02680,"BRISSY H. - PLACE MAIRIE ABRI","",49.7425,3.3799,,,0,,,
02:02681,02:02681,"MOY DE L. - COLLEGE","",49.75298,3.35876,,,0,,,
02:02683,02:02683,"ESSIGNY LE G. - LA GARE","",49.77936,3.26229,,,0,,,
02:02684,02:02684,"VENDEUIL - ABRI 37 RUE ST JEAN","",49.72134,3.34961,,,0,,,
02:02685,02:02685,"VENDEUIL - ABRI","",49.71514,3.35073,,,0,,,
02:02686,02:02686,"LY FONTAINE - ABRI","",49.73488,3.30745,,,0,,,
02:02687,02:02687,"GIBERCOURT - ABRI","",49.73723,3.28427,,,0,,,
02:02688,02:02688,"HINACOURT - ABRI","",49.74522,3.29553,,,0,,,
02:02689,02:02689,"BENAY - ABRI","",49.76037,3.305,,,0,,,
02:02690,02:02690,"MOY DE L. - FERME LA GUINGUETTE","",49.75883,3.3382,,,0,,,
02:02691,02:02691,"MOY DE L. - ECOLE","",49.7514,3.36311,,,0,,,
02:02692,02:02692,"ITANCOURT - RUE DE L' EGLISE","",49.80699,3.34533,,,0,,,
02:02696,02:02696,"GRUGIES - ABRI 15 RUE DE PICARDIE","",49.81178,3.26653,,,0,,,
02:02697,02:02697,"GAUCHY - LA CELLULOSE","",49.82756,3.27508,,,0,,,
02:02698,02:02698,"GAUCHY - MOULINS TS VENTS","",49.82412,3.29215,,,0,,,
02:02699,02:02699,"ST QUENTIN - PASSAGE SUPERIEUR","",49.84044,3.29824,,,0,,,
02:02700,02:02700,"GAUCHY - PONT BIETTE","",49.82922,3.2789,,,0,,,
02:02705,02:02705,"SOMMETTE E. - EAUCOURT PL. ABRI","",49.72393,3.12432,,,0,,,
02:02706,02:02706,"SOMMETTE E. - CALVAIRE","",49.73951,3.11691,,,0,,,
02:02707,02:02707,"SOMMETTE E. - MALKOFF CITE","",49.7368,3.10132,,,0,,,
02:02708,02:02708,"HAM - PL. ST MAR EC.","",49.74303,3.09515,,,0,,,
02:02709,02:02709,"HAM - 3 PLACE PELTIER","",49.74719,3.07524,,,0,,,
02:02717,02:02717,"CROIX F. - MERICOURT ARRET","",49.93924,3.38718,,,0,,,
02:02718,02:02718,"FONSOMMES - COURCELLES","",49.89988,3.38218,,,0,,,
02:02719,02:02719,"VERMAND - VILECHOLLES ABRI","",49.88354,3.16485,,,0,,,
02:02720,02:02720,"VERMAND - BIHECOURT X ABRI","",49.89394,3.16756,,,0,,,
02:02721,02:02721,"VERMAND - SOYECOURT CENTRE","",49.89279,3.12726,,,0,,,
02:02722,02:02722,"VERMAND - COLLEGE","",49.87815,3.14244,,,0,,,
02:02723,02:02723,"LE VERGUIER - ECOLE ABRI","",49.92499,3.16922,,,0,,,
02:02724,02:02724,"JEANCOURT - ABRI","",49.92754,3.14703,,,0,,,
02:02725,02:02725,"VENDELLES - ABRI EGLISE","",49.91012,3.13538,,,0,,,
02:02726,02:02726,"PONTRU - RAPERIE","",49.90736,3.20224,,,0,,,
02:02727,02:02727,"PONTRU - ECOLE ABRI","",49.90449,3.21602,,,0,,,
02:02729,02:02729,"ETREILLERS - PLACE ABRI","",49.82898,3.1618,,,0,,,
02:02730,02:02730,"FORESTE - AUROIR","",49.79932,3.09725,,,0,,,
02:02733,02:02733,"DOUCHY - ABRI MONUMENT","",49.79783,3.1352,,,0,,,
02:02734,02:02734,"FLUQUIERES - CENTRE ECOLE ABRI","",49.80371,3.1525,,,0,,,
02:02735,02:02735,"ROUPY - ECOLE","",49.81164,3.18378,,,0,,,
02:02736,02:02736,"VAUX EN V. - CENTRE ABRI","",49.82274,3.13924,,,0,,,
02:02737,02:02737,"GERMAINE - ABRI","",49.81178,3.11657,,,0,,,
02:02738,02:02738,"FORESTE - ABRI ANCIENNE GARE","",49.80563,3.09882,,,0,,,
02:02740,02:02740,"LANCHY - TRANSFO EDF","",49.82723,3.07631,,,0,,,
02:02741,02:02741,"TREFCON - ABRI","",49.85753,3.09653,,,0,,,
02:02742,02:02742,"SAVY - ABRI MAIRIE","",49.82946,3.19324,,,0,,,
02:02743,02:02743,"VERMAND - ABRI MARTEVILLE","",49.87172,3.15541,,,0,,,
02:02745,02:02745,"HOLNON - PLACE CHARLE DE GAULLE","",49.86148,3.21361,,,0,,,
02:02746,02:02746,"VERMAND - RN ABRI","",49.87908,3.15853,,,0,,,
02:02747,02:02747,"HOLNON - ABRI MARECHAL FOCH","",49.85861,3.21361,,,0,,,
02:02748,02:02748,"CAULAINCOURT - FACE ABRI EGLISE","",49.86418,3.1044,,,0,,,
02:02749,02:02749,"BEAUVOIS EN V. - ABRI CENTRE","",49.84012,3.1035,,,0,,,
02:02750,02:02750,"ATTILLY - MAIRIE","",49.85584,3.16687,,,0,,,
02:02751,02:02751,"ATTILLY - ABRI HAMEAU VILLEVEQUE","",49.85769,3.13296,,,0,,,
02:02752,02:02752,"LEVERGIES - PRESELLES SILO","",49.94441,3.32686,,,0,,,
02:02753,02:02753,"LEVERGIES - ABRI","",49.92825,3.3144,,,0,,,
02:02754,02:02754,"BEAUME - FERME PETELLE","",49.83921,4.15833,,,0,,,
02:02755,02:02755,"BEAUME - PLACE ABRI","",49.83778,4.15168,,,0,,,
02:02756,02:02756,"BEAUME - COURTE SOUPE HES","",49.8269,4.14952,,,0,,,
02:02757,02:02757,"BEAUME - MONT DU FAUX ABRI","",49.8176,4.14463,,,0,,,
02:02758,02:02758,"BEAUME - MONPLAISIR","",49.82001,4.16175,,,0,,,
02:02759,02:02759,"BEAUME - FER. GRANGE AUX B","",49.82579,4.15986,,,0,,,
02:02760,02:02760,"AUBENTON - RUE LARCHER ABRI","",49.82858,4.17419,,,0,,,
02:02761,02:02761,"AUBENTON - HURTEBISE ABRI","",49.82181,4.18167,,,0,,,
02:02762,02:02762,"AUBENTON - RIBEAUVILLE ABRI","",49.81175,4.19466,,,0,,,
02:02763,02:02763,"LOGNY LES A. - FERME FEUILLET","",49.82418,4.20632,,,0,,,
02:02764,02:02764,"AUBENTON - MAIRIE ABRI","",49.83611,4.20447,,,0,,,
02:02766,02:02766,"ST MICHEL - COLLEGE + PRIMAIRE","",49.92203,4.13599,,,0,,,
02:02767,02:02767,"MARTIGNY - LA BOULLOYE","",49.85924,4.11124,,,0,,,
02:02768,02:02768,"MARTIGNY - GDE JEANNE F.RIC","",49.8486,4.12149,,,0,,,
02:02769,02:02769,"BESMONT - D37 D74 ABRI","",49.83753,4.12172,,,0,,,
02:02772,02:02772,"BESMONT - RUE CHARLES AB","",49.82949,4.10609,,,0,,,
02:02773,02:02773,"LEUZE - SALLE DES FETES","",49.85144,4.16103,,,0,,,
02:02775,02:02775,"MARTIGNY - LA FOSSE ABRI","",49.87712,4.12742,,,0,,,
02:02776,02:02776,"MARTIGNY - RN43 X CV FOSSE","",49.88019,4.13612,,,0,,,
02:02778,02:02778,"ST MICHEL - MONTORIEUX ABRI","",49.90459,4.16193,,,0,,,
02:02779,02:02779,"ST MICHEL - BLISSY ABRI","",49.89432,4.15905,,,0,,,
02:02780,02:02780,"ST MICHEL - BLISSY P.N.","",49.89424,4.16399,,,0,,,
02:02781,02:02781,"ST MICHEL - LE CHAMPS ETRI","",49.89527,4.1682,,,0,,,
02:02782,02:02782,"WATIGNY - LA FONTAINE","",49.90142,4.1832,,,0,,,
02:02783,02:02783,"WATIGNY - MAIRIE","",49.90366,4.19439,,,0,,,
02:02784,02:02784,"WATIGNY - M.F DE BLISSY","",49.90144,4.18334,,,0,,,
02:02785,02:02785,"HIRSON - PL. DE LA REPUB.","",49.91814,4.08477,,,0,,,
02:02786,02:02786,"BEAUME - EGLISE","",49.83691,4.14956,,,0,,,
02:02789,02:02789,"AUBENTON - ECOLE","",49.83757,4.20701,,,0,,,
02:02791,02:02791,"ANY MARTIN R. - BELLEVUE ABRI","",49.86943,4.19022,,,0,,,
02:02793,02:02793,"ANY MARTIN R. - ANY GARE","",49.87679,4.19712,,,0,,,
02:02794,02:02794,"ANY MARTIN R. - ECOLE","",49.87921,4.22308,,,0,,,
02:02795,02:02795,"ANY MARTIN R. - RUE DES HALLES","",49.88133,4.22502,,,0,,,
02:02797,02:02797,"ENGLANCOURT - ABRI","",49.91598,3.8019,,,0,,,
02:02799,02:02799,"BUIRONFOSSE - LE BOUJON ABRI","",49.94759,3.8389,,,0,,,
02:02801,02:02801,"BUIRONFOSSE - ECOLE DU BAS","",49.96657,3.83444,,,0,,,
02:02802,02:02802,"LA CAPELLE - SACRE COEUR","",49.9804,3.91658,,,0,,,
02:02803,02:02803,"LERZY - PLACE","",49.94419,3.88176,,,0,,,
02:02804,02:02804,"LA CAPELLE - EC. PRIMAIRE","",49.97566,3.92009,,,0,,,
02:02805,02:02805,"WIMY - PLACE EGLISE MAI","",49.93509,4.00031,,,0,,,
02:02806,02:02806,"WIMY - ECREVEAUX BAS","",49.93372,3.99641,,,0,,,
02:02807,02:02807,"WIMY - ECREVEAUX HAUT","",49.9502,3.9903,,,0,,,
02:02810,02:02810,"WIMY - ABRI","",49.93367,3.99628,,,0,,,
02:02811,02:02811,"WIMY - BRIQUETERIE","",49.93062,3.97944,,,0,,,
02:02812,02:02812,"EFFRY - ABRI","",49.92761,3.98339,,,0,,,
02:02813,02:02813,"LUZOIR - ABRI","",49.92485,3.96275,,,0,,,
02:02814,02:02814,"AUTREPPES - ABRI","",49.90467,3.85544,,,0,,,
02:02815,02:02815,"SORBAIS - LA CROISETTE","",49.89976,3.88658,,,0,,,
02:02816,02:02816,"SORBAIS - SALLE DES FETES","",49.90862,3.89346,,,0,,,
02:02817,02:02817,"ETREAUPONT - MAIRIE","",49.90258,3.91561,,,0,,,
02:02819,02:02819,"FROIDESTREES - 80 RN2","",49.93623,3.90376,,,0,,,
02:02820,02:02820,"FROIDESTREES - 5 RN2","",49.94916,3.90724,,,0,,,
02:02821,02:02821,"LA BOUTEILLE - LES ETOTS","",49.89884,3.93697,,,0,,,
02:02827,02:02827,"ETREAUPONT - ENTRE DEUX BOIS","",49.90562,3.9805,,,0,,,
02:02829,02:02829,"ETREAUPONT - LES FOULONS ABRI","",49.90464,3.95463,,,0,,,
02:02830,02:02830,"ETREAUPONT - 21BIS MT ORIGNY","",49.90337,3.94468,,,0,,,
02:02833,02:02833,"LA FLAMENGRIE - LA RUE DU MIDI E","",49.99425,3.89136,,,0,,,
02:02834,02:02834,"LA FLAMENGRIE - LA HAIE PAYENNE","",50.00047,3.88525,,,0,,,
02:02835,02:02835,"PAPLEUX - CHEVALET HAB.CLA","",50.01142,3.88183,,,0,,,
02:02836,02:02836,"PAPLEUX - AIRE ABRI","",50.02097,3.88471,,,0,,,
02:02838,02:02838,"LA FLAMENGRIE - CH.REINE F.HOUSS","",50.01627,3.90632,,,0,,,
02:02839,02:02839,"LA FLAMENGRIE - CHEMIN REINE RN","",50.02324,3.92297,,,0,,,
02:02841,02:02841,"LA FLAMENGRIE - ECOLE CENTRE","",50.00512,3.92121,,,0,,,
02:02842,02:02842,"GERGNY - SAINT LOT ABRI","",49.93554,3.92893,,,0,,,
02:02844,02:02844,"SOMMERON - ECOLE ABRI","",49.95136,3.93951,,,0,,,
02:02845,02:02845,"CLAIRFONTAINE - HAMEAU DE BRAY P","",49.96133,3.96622,,,0,,,
02:02846,02:02846,"CLAIRFONTAINE - PLACE MAIRIE","",49.98255,3.99002,,,0,,,
02:02847,02:02847,"CLAIRFONTAINE - NUL S'Y FROTTE A","",49.97681,3.98118,,,0,,,
02:02848,02:02848,"CLAIRFONTAINE - RUE PARIS CITE M","",49.96594,3.97123,,,0,,,
02:02850,02:02850,"CLAIRFONTAINE - RUE PARIS CAFE","",49.96718,3.96184,,,0,,,
02:02853,02:02853,"LA FLAMENGRIE - PT BOIS ST DENIS","",49.98892,3.96516,,,0,,,
02:02854,02:02854,"ERLOY - ECOLE","",49.91417,3.82861,,,0,,,
02:02855,02:02855,"ENGLANCOURT - HABITATION MENE","",49.93268,3.80505,,,0,,,
02:02856,02:02856,"LA FLAMENGRIE - HAUDROY ECOLE AB","",49.99296,3.94693,,,0,,,
02:02857,02:02857,"ROCQUIGNY - MONTREUIL ABRI","",50.0182,3.96409,,,0,,,
02:02858,02:02858,"ROCQUIGNY - LES HAYETTES ABRI","",50.01816,3.9642,,,0,,,
02:02859,02:02859,"ROCQUIGNY - PLACE ABRI","",50.02381,3.98144,,,0,,,
02:02860,02:02860,"ROCQUIGNY - LE PIED DU TERNE","",50.00761,3.97231,,,0,,,
02:02861,02:02861,"LA FLAMENGRIE - X BAS HAUT BUGNY","",50.01462,3.94441,,,0,,,
02:02862,02:02862,"LA FLAMENGRIE - GRAVIER CHIMAY","",50.00175,3.95961,,,0,,,
02:02863,02:02863,"ETREAUPONT - X D31 RN2 ABRI","",49.89978,3.91287,,,0,,,
02:02865,02:02865,"ETREAUPONT - ECOLE PLACE FOYER","",49.90357,3.91627,,,0,,,
02:02866,02:02866,"MARLY GOMONT - ECOLE","",49.90462,3.78626,,,0,,,
02:02869,02:02869,"LA FLAMENGRIE - CENSE AUX LIEVRE","",49.99894,3.93283,,,0,,,
02:02870,02:02870,"VILLERS LES G. - ABRI","",49.92198,3.67572,,,0,,,
02:02871,02:02871,"VILLERS LES G. - PLACE ABRI","",49.91836,3.67761,,,0,,,
02:02872,02:02872,"MALZY - LES 3 PIGEONS X","",49.93171,3.71464,,,0,,,
02:02873,02:02873,"CRUPILLY - OREE DU BOIS PAR","",49.93851,3.74148,,,0,,,
02:02874,02:02874,"CRUPILLY - ABRI","",49.92556,3.75482,,,0,,,
02:02875,02:02875,"MALZY - LE BRULE FACE GR","",49.9099,3.74297,,,0,,,
02:02876,02:02876,"MALZY - ABRI","",49.90734,3.727,,,0,,,
02:02877,02:02877,"MONCEAU S/ O. - ABRI","",49.90212,3.69717,,,0,,,
02:02878,02:02878,"FLAVIGNY LE G. - FACE PETIT CHEF","",49.89736,3.66964,,,0,,,
02:02879,02:02879,"FLAVIGNY LE G. - MAIRIE ECOLE","",49.89399,3.6663,,,0,,,
02:02880,02:02880,"DORENGT - PETIT DORENGT","",49.95223,3.72238,,,0,,,
02:02881,02:02881,"LAVAQUERESSE - ECOLE","",49.94847,3.71128,,,0,,,
02:02882,02:02882,"LAVAQUERESSE - PLACE DU TORCHON","",49.94582,3.70317,,,0,,,
02:02883,02:02883,"IRON - SALLE DES FETES","",49.95746,3.65825,,,0,,,
02:02884,02:02884,"IRON - FERME JERUSALEM","",49.96433,3.64536,,,0,,,
02:02885,02:02885,"TUPIGNY - PLACE ABRI ECOLE","",49.95674,3.60771,,,0,,,
02:02886,02:02886,"FRESNOY LE G. - PLACE ABRI","",49.9491,3.41666,,,0,,,
02:02887,02:02887,"ETAVES ET B. - N°3 RUE S.POULAI","",49.93967,3.45711,,,0,,,
02:02889,02:02889,"AISONVILLE ET B - ABRI MARTIMPREY","",49.93068,3.51373,,,0,,,
02:02891,02:02891,"LE NOUVION E. - COLLEGE","",50.00796,3.78322,,,0,,,
02:02892,02:02892,"ESQUEHERIES - PT RUE CROIX VEN","",49.99737,3.77514,,,0,,,
02:02893,02:02893,"LESCHELLES - LES 4 CHEMINS","",49.95117,3.776,,,0,,,
02:02894,02:02894,"LA NEUVILLE L. - ABRI SALLE FETES","",49.9772,3.67637,,,0,,,
02:02899,02:02899,"MONDREPUIS - ARDENNES X R.C","",49.96045,4.06306,,,0,,,
02:02900,02:02900,"MONDREPUIS - ARDENNES X 963","",49.96175,4.08077,,,0,,,
02:02902,02:02902,"MONDREPUIS - 29 RUE DU GAL DE","",49.95583,4.04881,,,0,,,
02:02904,02:02904,"MONDREPUIS - RN43 D75","",49.95981,4.0136,,,0,,,
02:02907,02:02907,"WIMY - MAIRIE ABRI","",49.93364,3.99806,,,0,,,
02:02908,02:02908,"ORIGNY EN T. - ABRI MAIRIE","",49.89514,4.01751,,,0,,,
02:02909,02:02909,"ORIGNY EN T. - CHEMIN DE PLOMI","",49.87457,4.01704,,,0,,,
02:02910,02:02910,"ORIGNY EN T. - CHAUDRON PLACE A","",49.8682,4.00661,,,0,,,
02:02911,02:02911,"ORIGNY EN T. - ABRI 22 ROUTIERES","",49.89165,4.00159,,,0,,,
02:02912,02:02912,"HIRSON - 23 RUE DE GUISE","",49.92152,4.0783,,,0,,,
02:02913,02:02913,"BUIRE - CITE ABRI","",49.90909,4.06809,,,0,,,
02:02914,02:02914,"ORIGNY EN T. - FACE HABIT.PEROT","",49.86933,4.00895,,,0,,,
02:02915,02:02915,"ORIGNY EN T. - ABRI 27 LA MALADRE","",49.88935,4.01103,,,0,,,
02:02916,02:02916,"BUIRE - HAMEAU LES ENCLO","",49.91313,4.05772,,,0,,,
02:02917,02:02917,"BUIRE - COMPLEXE SPORTIF","",49.90934,4.06421,,,0,,,
02:02919,02:02919,"BUCILLY - FACE ABRI PLACE","",49.87703,4.09224,,,0,,,
02:02920,02:02920,"LANDOUZY LA V. - CHENE BOURDON B.","",49.8521,4.08209,,,0,,,
02:02921,02:02921,"LANDOUZY LA V. - CENSE DES NOBLES","",49.85532,4.06917,,,0,,,
02:02922,02:02922,"LANDOUZY LA V. - PLACE","",49.86192,4.04804,,,0,,,
02:02923,02:02923,"EPARCY - EGLISE","",49.87429,4.06159,,,0,,,
02:02924,02:02924,"LA HERIE - LES 4 CHEMINS AB","",49.87619,4.03099,,,0,,,
02:02925,02:02925,"LA HERIE - MAIRIE ECOLE ABRI","",49.88342,4.04703,,,0,,,
02:02926,02:02926,"BRAYE EN T. - LA CORRERIE","",49.7672,3.95158,,,0,,,
02:02927,02:02927,"BRAYE EN T. - ABRI PLACE","",49.77954,3.95732,,,0,,,
02:02928,02:02928,"HARY - ARRET RTA","",49.78923,3.93234,,,0,,,
02:02929,02:02929,"HARY - CHAUSSEE HARY","",49.81157,3.91571,,,0,,,
02:02930,02:02930,"THENAILLES - LA HERSE D'OR","",49.81892,3.93255,,,0,,,
02:02931,02:02931,"VERVINS - GARE SNCF","",49.82987,3.89387,,,0,,,
02:02932,02:02932,"LANDOUZY LA C. - VERTE VALLEE ABR","",49.84025,3.96259,,,0,,,
02:02933,02:02933,"LANDOUZY LA C. - ECOLE ABRI","",49.84738,3.985,,,0,,,
02:02934,02:02934,"PLOMION - RTA ABRI","",49.80829,4.01673,,,0,,,
02:02935,02:02935,"HARCIGNY - ABRI PLACE","",49.79671,3.98207,,,0,,,
02:02936,02:02936,"ORIGNY EN T. - GARE SNCF","",49.89084,4.02392,,,0,,,
02:02937,02:02937,"ST MICHEL - LES VALLEES","",49.89594,4.11153,,,0,,,
02:02938,02:02938,"ROZOY S/ S. - SALLE DES FETES","",49.70962,4.1305,,,0,,,
02:02939,02:02939,"BANCIGNY - EGLISE ABRI","",49.8008,4.03338,,,0,,,
02:02940,02:02940,"JEANTES - EGLISE","",49.8041,4.05439,,,0,,,
02:02941,02:02941,"JEANTES - LA LONGUE RUE","",49.82149,4.08264,,,0,,,
02:02942,02:02942,"ST MICHEL - M. F. DE BLISSY","",49.91321,4.17684,,,0,,,
02:02943,02:02943,"ST MICHEL - LA BOVETTE ABRI","",49.91973,4.13818,,,0,,,
02:02944,02:02944,"AUBENTON - BUIREFONTAINE","",49.84298,4.19442,,,0,,,
02:02945,02:02945,"MARTIGNY - PONT A L'ECU TR.","",49.85791,4.13658,,,0,,,
02:02948,02:02948,"ST MICHEL - PLACE MAIRIE","",49.91875,4.13437,,,0,,,
02:02949,02:02949,"SAINS R. - ABRI PLACE MAIRIE","",49.82371,3.70267,,,0,,,
02:02951,02:02951,"VOULPAIX - ABRI","",49.8379,3.83098,,,0,,,
02:02952,02:02952,"LAIGNY - ABRI","",49.85757,3.85392,,,0,,,
02:02953,02:02953,"FONTAINE LES V. - PLACE","",49.85294,3.89689,,,0,,,
02:02958,02:02958,"LE NOUVION E. - FONT. PAUV. N°31","",50.02993,3.81086,,,0,,,
02:02959,02:02959,"LE NOUVION E. - FONT. PAUV. N°1","",50.02434,3.80268,,,0,,,
02:02960,02:02960,"LE NOUVION E. - ECOLE PRIMAIRE","",50.01453,3.78469,,,0,,,
02:02961,02:02961,"LE NOUVION E. - MAT. RUE AUDUBERT","",50.01762,3.78675,,,0,,,
02:02962,02:02962,"LESCHELLES - ABRI PLACE","",49.95848,3.76995,,,0,,,
02:02963,02:02963,"LE NOUVION E. - MALEMPERCHE ABRI","",50.02062,3.80878,,,0,,,
02:02964,02:02964,"FONTENELLE - GARM. ABRI BUISSO","",50.02514,3.85087,,,0,,,
02:02965,02:02965,"FONTENELLE - LE GARMOUZET ABRI","",50.02468,3.84043,,,0,,,
02:02966,02:02966,"FONTENELLE - MAIRIE ECOLE","",50.02978,3.86467,,,0,,,
02:02967,02:02967,"OISY - ABRI S. DES FETES","",50.02115,3.67009,,,0,,,
02:02968,02:02968,"FESMY LE S. - ABRI","",50.04124,3.6783,,,0,,,
02:02969,02:02969,"FESMY LE S. - ROBELMETRE","",50.05421,3.68764,,,0,,,
02:02970,02:02970,"FESMY LE S. - LA CULBUTE","",50.0595,3.70436,,,0,,,
02:02971,02:02971,"FESMY LE S. - LA CAMBOTTE X","",50.06034,3.70633,,,0,,,
02:02972,02:02972,"FESMY LE S. - LE SART ABRI","",50.06065,3.72674,,,0,,,
02:02973,02:02973,"BARZY EN T. - PAS DE VACHES X","",50.05282,3.74642,,,0,,,
02:02974,02:02974,"LE NOUVION E. - MON IDEE (Nø6)","",50.029,3.76476,,,0,,,
02:02977,02:02977,"BERGUES S/ S. - SALLE FETES PLAC","",50.03397,3.70548,,,0,,,
02:02978,02:02978,"BARZY EN T.- CARRIERE ETREUX HAUT","",50.04085,3.72957,,,0,,,
02:02979,02:02979,"BARZY EN T. - ABRI","",50.04273,3.74822,,,0,,,
02:02980,02:02980,"BARZY EN T. - LALOUZY ABRI","",50.0447,3.76831,,,0,,,
02:02982,02:02982,"LE NOUVION E. - BEAUCAMPS Nø32TER","",50.04067,3.79557,,,0,,,
02:02984,02:02984,"BOUE - LA FOLIE","",50.01441,3.7302,,,0,,,
02:02986,02:02986,"BOUE - PARKING TENNIS","",50.01013,3.70687,,,0,,,
02:02987,02:02987,"LE NOUVION E. - 9 MOULIN LOINTA","",50.01029,3.75287,,,0,,,
02:02988,02:02988,"LE NOUVION E. - 26 MOULIN LOINTA","",50.01151,3.73932,,,0,,,
02:02989,02:02989,"LE NOUVION E. - 18 MOULIN LOINTA","",50.01027,3.75212,,,0,,,
02:02990,02:02990,"FONTENELLE - X D75 RUE BR","",50.02732,3.85888,,,0,,,
02:02992,02:02992,"DORENGT - ABRI","",49.97679,3.68301,,,0,,,
02:02993,02:02993,"ETREUX - ROUTE GARD STADE","",49.99913,3.67734,,,0,,,
02:02994,02:02994,"ETREUX - LE GARD ABRI","",50.00226,3.68372,,,0,,,
02:02995,02:02995,"LA NEUVILLE L. - FOUCOMME CAURET","",49.99726,3.69865,,,0,,,
02:02997,02:02997,"LA NEUVILLE L. - TROUEE DE DORENG","",49.99252,3.7194,,,0,,,
02:02998,02:02998,"ESQUEHERIES - PT FOUC.CHEM.VOI","",49.98982,3.73547,,,0,,,
02:02999,02:02999,"ETREUX - ABRI RUE CH DE GAULLE","",49.99692,3.66376,,,0,,,
02:03001,02:03001,"ESQUEHERIES - ABRI","",49.98591,3.74283,,,0,,,
02:03002,02:03002,"ESQUEHERIES - LA PLANCHETTE","",49.98876,3.7553,,,0,,,
02:03003,02:03003,"BERLANCOURT - MAIRIE","",49.77876,3.75731,,,0,,,
02:03004,02:03004,"LA NEUVILLE H. - MAIRIE","",49.79172,3.72829,,,0,,,
02:03005,02:03005,"HOUSSET - ECOLE","",49.79507,3.70818,,,0,,,
02:03006,02:03006,"SAINS R. - GROUPE SCOLAIRE","",49.82569,3.70431,,,0,,,
02:03007,02:03007,"ST PIERRE L. - EGLISE","",49.81881,3.82261,,,0,,,
02:03008,02:03008,"FRANQUEVILLE - ECOLE","",49.80868,3.8095,,,0,,,
02:03009,02:03009,"ST GOBERT - LANNEUX TR.HOUX","",49.81309,3.84231,,,0,,,
02:03010,02:03010,"ST GOBERT - ECOLE ABRI","",49.80289,3.82639,,,0,,,
02:03011,02:03011,"ST GOBERT - GARE ABRI","",49.80332,3.81351,,,0,,,
02:03012,02:03012,"ROUGERIES - CHANTRAINE ABRI","",49.80132,3.79821,,,0,,,
02:03013,02:03013,"ROUGERIES - MAIRIE","",49.80226,3.78687,,,0,,,
02:03014,02:03014,"VOHARIES - ECOLE","",49.78778,3.79413,,,0,,,
02:03015,02:03015,"MARFONTAINE - ABRI","",49.80326,3.77303,,,0,,,
02:03016,02:03016,"ST GOBERT - LANNEUX PECHONS","",49.80736,3.82876,,,0,,,
02:03017,02:03017,"CHEVENNES - ECOLE","",49.81525,3.7333,,,0,,,
02:03018,02:03018,"SAINS R. - RICHAUMONT ECOLE","",49.83334,3.71811,,,0,,,
02:03019,02:03019,"COLONFAY - ABRI","",49.85877,3.71268,,,0,,,
02:03020,02:03020,"WIEGE FATY - LE MOULIN","",49.88735,3.72029,,,0,,,
02:03021,02:03021,"WIEGE FATY - ECOLE","",49.88135,3.71774,,,0,,,
02:03022,02:03022,"LE SOURD - ABRI","",49.86579,3.74916,,,0,,,
02:03023,02:03023,"LE SOURD - CALVAIRE","",49.85976,3.74719,,,0,,,
02:03024,02:03024,"PLOMION - NOGEMONT","",49.82556,4.04291,,,0,,,
02:03025,02:03025,"PLOMION - RUE HEUREUSE ECO","",49.84168,4.03552,,,0,,,
02:03026,02:03026,"LANDOUZY LA V. - 65 RUE D'EN HAUT","",49.85745,4.03779,,,0,,,
02:03027,02:03027,"LANDOUZY LA V. - RUE DES BOEUFS","",49.86227,4.06725,,,0,,,
02:03028,02:03028,"LANDOUZY LA V. - CHENE BOURDON H.","",49.8466,4.07514,,,0,,,
02:03029,02:03029,"PLOMION - L' EPINETTE","",49.83771,4.06164,,,0,,,
02:03030,02:03030,"JEANTES - LA SABLONNIERE","",49.82529,4.06383,,,0,,,
02:03031,02:03031,"JEANTES - COQ BANNI ABRI","",49.8116,4.09253,,,0,,,
02:03032,02:03032,"JEANTES - COUTENVAL TRANSF","",49.80333,4.07299,,,0,,,
02:03033,02:03033,"VERVINS - COLLEGE 14 RUE ESCARBOT","",49.83685,3.91713,,,0,,,
02:03034,02:03034,"VERVINS - ECOLE MARIE MORET","",49.83571,3.91426,,,0,,,
02:03036,02:03036,"BRAYE EN T. - VAL ST PIERRE AB","",49.76339,3.96057,,,0,,,
02:03037,02:03037,"THENAILLES - PLACE ABRI","",49.82036,3.93809,,,0,,,
02:03038,02:03038,"HIRSON - 12 RUE DU GEN. DEBENEY","",49.91756,4.08105,,,0,,,
02:03039,02:03039,"LA BOUTEILLE - GARE","",49.8597,3.98164,,,0,,,
02:03040,02:03040,"LA BOUTEILLE - ECOLE ABRI","",49.85925,3.97321,,,0,,,
02:03041,02:03041,"LA BOUTEILLE - ARRET VAN MALLEG","",49.85738,3.95737,,,0,,,
02:03042,02:03042,"HIRSON - RUE D'ALSACE ABRI","",49.91493,4.08446,,,0,,,
02:03043,02:03043,"ETREAUPONT - CHAUSSEE ETREAUP.","",49.88206,3.90709,,,0,,,
02:03045,02:03045,"LAIGNY - BOITE AUX LETTRE","",49.8712,3.86815,,,0,,,
02:03046,02:03046,"LAIGNY - BEAUREPAIRE FACE","",49.85903,3.86476,,,0,,,
02:03047,02:03047,"HAUTION - ABRI PLACE","",49.86593,3.83828,,,0,,,
02:03048,02:03048,"HAUTION - AMBERCY CARREFOUR","",49.87525,3.82293,,,0,,,
02:03049,02:03049,"HAUTION - FERONVAL AIRE DE","",49.87718,3.80701,,,0,,,
02:03050,02:03050,"LA VALLEE A. - HAB. BOLLINE","",49.86241,3.80029,,,0,,,
02:03052,02:03052,"LA VALLEE A. - X RTA ABRI","",49.85783,3.78923,,,0,,,
02:03053,02:03053,"VERVINS - PLACE PAPILLON","",49.83306,3.90232,,,0,,,
02:03054,02:03054,"VERVINS - MENDES FRANCE","",49.82833,3.90431,,,0,,,
02:03055,02:03055,"GERCY - GERCY BAS PLACE","",49.81571,3.86399,,,0,,,
02:03056,02:03056,"GERCY - GERCY RN ABRI","",49.81402,3.86915,,,0,,,
02:03057,02:03057,"FONTAINE LES V. - CAMBRON ABRI","",49.82643,3.86592,,,0,,,
02:03058,02:03058,"FONTAINE LES V. - LYCEE AGRICOLE","",49.83438,3.88374,,,0,,,
02:03059,02:03059,"FONTAINE LES V. - ECOLE","",49.85125,3.8971,,,0,,,
02:03060,02:03060,"FONTAINE LES V. - RUE LAVANDIERE","",49.85269,3.90135,,,0,,,
02:03061,02:03061,"FONTAINE LES V. - RUE PONT PIERRE","",49.83173,3.89231,,,0,,,
02:03062,02:03062,"FONTAINE LES V. - RD960 X RTE CAM","",49.83308,3.88233,,,0,,,
02:03063,02:03063,"VOULPAIX - 6 RUE DES FONTAINES","",49.83882,3.83086,,,0,,,
02:03064,02:03064,"VOULPAIX - FACE 6 RUE DES FONTAIN","",49.83874,3.83071,,,0,,,
02:03065,02:03065,"ROUGERIES - ABRI","",49.80228,3.78679,,,0,,,
02:03066,02:03066,"LUGNY - PLACE ABRI","",49.78139,3.8089,,,0,,,
02:03067,02:03067,"HOURY - PLACE ABRI","",49.78214,3.85002,,,0,,,
02:03069,02:03069,"PRISCES - PLACE ABRI","",49.77903,3.86235,,,0,,,
02:03070,02:03070,"GRONARD - MAIN DE PIERRE","",49.78696,3.86966,,,0,,,
02:03071,02:03071,"GRONARD - PLACE ABRI","",49.79298,3.8828,,,0,,,
02:03073,02:03073,"BURELLES - PLACE ABRI","",49.78162,3.89842,,,0,,,
02:03074,02:03074,"NAMPCELLES LA C - MAIRIE ABRI","",49.77819,4.00308,,,0,,,
02:03075,02:03075,"NAMPCELLES LA C - FERME MALVAUX","",49.78514,4.00492,,,0,,,
02:03076,02:03076,"LA BOUTEILLE - PARADIS CROISIEME","",49.87509,3.93476,,,0,,,
02:03077,02:03077,"LA BOUTEILLE - RUE DES CARETTES","",49.87911,3.95394,,,0,,,
02:03078,02:03078,"LA BOUTEILLE - ARBALETE","",49.87909,3.95394,,,0,,,
02:03079,02:03079,"LA BOUTEILLE - FOIGNY CROISEMEN","",49.86513,3.96965,,,0,,,
02:03080,02:03080,"THENAILLES - LA TORTUE","",49.79419,3.94889,,,0,,,
02:03081,02:03081,"ETREUX - HT HLM RTE WASSI","",49.99603,3.65623,,,0,,,
02:03082,02:03082,"HANNAPES - PRESBYTERES ABRI","",49.97345,3.62512,,,0,,,
02:03084,02:03084,"MOLAIN - HAIE MENNERESSE","",50.03579,3.50703,,,0,,,
02:03085,02:03085,"ST MARTIN R. - ABRI EGLISE","",50.04373,3.53934,,,0,,,
02:03086,02:03086,"ST MARTIN R. - ARBRE GUISE ABRI","",50.05215,3.5711,,,0,,,
02:03087,02:03087,"RIBEAUVILLE - ECOLE ABRI","",50.04278,3.58453,,,0,,,
02:03088,02:03088,"MENNEVRET - CAFE ARRET RTA","",49.98294,3.55472,,,0,,,
02:03095,02:03095,"VINCY REUIL E. - MAGNY ABRI","",49.71687,4.05708,,,0,,,
02:03101,02:03101,"NANTEUIL LA F. - LA QUINCY","",49.41855,3.44231,,,0,,,
02:03102,02:03102,"SOISSONS - LTE CES BD PRESLES","",49.37226,3.30529,,,0,,,
02:03118,02:03118,"OSLY COURTIL - ABRI 2 RTE FONTENO","",49.40253,3.22873,,,0,,,
02:03119,02:03119,"OSLY COURTIL - COURTIL ABRI","",49.3946,3.24907,,,0,,,
02:03121,02:03121,"EFFRY - ECOLE","",49.92325,3.9851,,,0,,,
02:03122,02:03122,"AUBIGNY AUX K. - ECOLE","",49.77496,3.11643,,,0,,,
02:03123,02:03123,"ETREUX - ECOLE DU CENTRE","",49.9899,3.65496,,,0,,,
02:03128,02:03128,"FORESTE - MAIRIE ECOLE","",49.80744,3.099,,,0,,,
02:03129,02:03129,"HARGICOURT - ECOLE","",49.96165,3.18083,,,0,,,
02:03131,02:03131,"JONCOURT - ECOLE","",49.956,3.30018,,,0,,,
02:03133,02:03133,"MACQUIGNY - ECOLE","",49.88379,3.54968,,,0,,,
02:03135,02:03135,"MARTIGNY - PLACE ECOLE","",49.85969,4.1376,,,0,,,
02:03136,02:03136,"MAYOT - ECOLE ABRI","",49.70447,3.38476,,,0,,,
02:03137,02:03137,"MEZIERES S/ O. - PL. EGLISE EC.","",49.78252,3.40154,,,0,,,
02:03138,02:03138,"MONCEAU LE F. - ECOLE ABRI","",49.76889,3.61627,,,0,,,
02:03139,02:03139,"BERNOT - ECOLE 3 RUE DU MOULIN","",49.86827,3.50188,,,0,,,
02:03140,02:03140,"NEUVILLETTE - ECOLE ABRI","",49.85356,3.48253,,,0,,,
02:03141,02:03141,"BERNOT - ABRI MAIRIE ECOLE","",49.86897,3.49853,,,0,,,
02:03142,02:03142,"OISY - ECOLE","",50.02112,3.66374,,,0,,,
02:03144,02:03144,"PARPEVILLE - ECOLE","",49.78438,3.54748,,,0,,,
02:03145,02:03145,"PLOMION - ECOLE","",49.80708,4.01602,,,0,,,
02:03147,02:03147,"ROUGERIES - ECOLE ABRI","",49.80226,3.78687,,,0,,,
02:03149,02:03149,"VADENCOURT - ECOLE","",49.92815,3.57784,,,0,,,
02:03150,02:03150,"VAUX ANDIGNY - ECOLE","",50.02308,3.51288,,,0,,,
02:03152,02:03152,"VERMAND - PLACE E P","",49.87814,3.14998,,,0,,,
02:03154,02:03154,"VILLERS LE S. - ABRI FACE ECOLE","",49.77735,3.49957,,,0,,,
02:03156,02:03156,"BARZY EN T. - ECOLE","",50.04272,3.74876,,,0,,,
02:03157,02:03157,"AUDIGNY - ECOLE","",49.86823,3.64724,,,0,,,
02:03158,02:03158,"ALAINCOURT - ECOLE","",49.76444,3.37612,,,0,,,
02:03159,02:03159,"GUISE - ECOLE SCHWEITZER","",49.89418,3.63538,,,0,,,
02:03161,02:03161,"ETREILLERS - ECOLE","",49.82887,3.16053,,,0,,,
02:03162,02:03162,"LA VALLEE A. - ECOLE","",49.85705,3.79054,,,0,,,
02:03164,02:03164,"THENELLES - ECOLE","",49.83094,3.46837,,,0,,,
02:03165,02:03165,"GRUGIES - ECOLE","",49.81337,3.26328,,,0,,,
02:03167,02:03167,"FRANCILLY S. - ABRI EGLISE","",49.85633,3.22511,,,0,,,
02:03171,02:03171,"ATTILLY - ABRI HAMEAU MARTEVILLE","",49.87163,3.15507,,,0,,,
02:03193,02:03193,"TUGNY ET P. - TUGNY ECOLE","",49.75737,3.15483,,,0,,,
02:03196,02:03196,"VILLERS OUTREAUX -ECOLE ST JOSEPH","",50.03116,3.29904,,,0,,,
02:03197,02:03197,"VILLERS OUTREAUX -ECOLE JEAN MOUL","",50.03192,3.3017,,,0,,,
02:03198,02:03198,"VILLERS OUTREAUX -ECOLE R.VICTO","",50.03325,3.30102,,,0,,,
02:03199,02:03199,"VILLERS OUTREAUX -ECOLE R.PASTEUR","",50.03405,3.30012,,,0,,,
02:03200,02:03200,"CAULAINCOURT - MAIRIE ECOLE","",49.86396,3.10641,,,0,,,
02:03202,02:03202,"BEAUVOIS EN V. - ECOLE","",49.83945,3.10339,,,0,,,
02:03203,02:03203,"MEZIERES S/ O. - MAIRIE EC. PRIMA","",49.78229,3.40052,,,0,,,
02:03204,02:03204,"BERTHENICOURT - ECOLE","",49.77248,3.38207,,,0,,,
02:03206,02:03206,"FONTAINE U. - PL MAIRIE ECOLE","",49.92168,3.37124,,,0,,,
02:03207,02:03207,"FRESNOY LE G-EC. VATIN RUE MEUNIE","",49.94769,3.41761,,,0,,,
02:03209,02:03209,"CASTRES -ECOLE","",49.8041,3.23852,,,0,,,
02:03210,02:03210,"DURY - HAMEAU ALVA","",49.74408,3.13494,,,0,,,
02:03211,02:03211,"REGNY - LA DESOLATION CD","",49.8404,3.447,,,0,,,
02:03212,02:03212,"THENELLES - ABRI EGLISE","",49.83226,3.46973,,,0,,,
02:03213,02:03213,"SISSY - CHAPELLE ENDORMIE","",49.80529,3.43628,,,0,,,
02:03214,02:03214,"SISSY - ABRI RUE R. LEROY","",49.80289,3.42782,,,0,,,
02:03215,02:03215,"SISSY - 6 RUE LEFEBVRE","",49.80268,3.4269,,,0,,,
02:03216,02:03216,"LEVERGIES - ECOLE MARIE TROCME","",49.92716,3.31201,,,0,,,
02:03217,02:03217,"LEVERGIES - 34 RUE SEQUEHART","",49.92788,3.31035,,,0,,,
02:03218,02:03218,"JONCOURT - MOULIN GRISON","",49.96048,3.31507,,,0,,,
02:03222,02:03222,"MONTBREHAIN - ECOLE MONUMENT","",49.96478,3.34655,,,0,,,
02:03224,02:03224,"VERMAND - N° 11 RUE DE MARTEVILLE","",49.87759,3.1604,,,0,,,
02:03225,02:03225,"VERMAND - BASCULE ABRI","",49.8845,3.15486,,,0,,,
02:03226,02:03226,"PITHON - FACE ABRI EGLISE","",49.75302,3.09762,,,0,,,
02:03227,02:03227,"AUBIGNY AUX K. - MONUMENT AB","",49.77406,3.11557,,,0,,,
02:03228,02:03228,"BRISSY H. - ECOLE PRIMAIRE","",49.74627,3.38045,,,0,,,
02:03229,02:03229,"BRISSY H. - ECOLE MATERNELLE","",49.74338,3.37963,,,0,,,
02:03231,02:03231,"URVILLERS - MAIRIE ECOLE","",49.79003,3.30946,,,0,,,
02:03232,02:03232,"FLAVY LE M. - RUE ROOSEVELT","",49.714,3.19132,,,0,,,
02:03234,02:03234,"VILLERS LES G. - RN29 PARKIN ANTI","",49.92348,3.68001,,,0,,,
02:03235,02:03235,"MONCEAU S/ O. - ECOLE","",49.90097,3.69639,,,0,,,
02:03236,02:03236,"FLAVIGNY LE G.-FERME TOPIN","",49.88654,3.66266,,,0,,,
02:03237,02:03237,"FLAVIGNY LE G.-BEAURAIN ECOLE ABR","",49.88296,3.67424,,,0,,,
02:03238,02:03238,"PROISY - ARRET RTA  ABRI","",49.89803,3.73928,,,0,,,
02:03239,02:03239,"ROMERY - ABRI MAIRIE","",49.89712,3.72229,,,0,,,
02:03240,02:03240,"MARLY GOMONT - 17 RUE DE GUISE","",49.89428,3.7617,,,0,,,
02:03242,02:03242,"LEME - ABRI ECOLE","",49.83731,3.76319,,,0,,,
02:03246,02:03246,"EFFRY - CITE BRIFFAUT","",49.92759,3.98344,,,0,,,
02:03247,02:03247,"ST GOBERT - LANNEUX TOULOUSE","",49.81002,3.83529,,,0,,,
02:03249,02:03249,"ROUGERIES - BOIS ROUGERIES X","",49.79612,3.787,,,0,,,
02:03253,02:03253,"PROIX - ABRI","",49.90214,3.56485,,,0,,,
02:03254,02:03254,"VADENCOURT - LONGCHAMPS ECOLE","",49.91731,3.56304,,,0,,,
02:03255,02:03255,"VERVINS - LA GRANDE DENTEUSE","",49.82414,3.93161,,,0,,,
02:03257,02:03257,"HIRSON - PL.VILLEMANT","",49.92419,4.07963,,,0,,,
02:03259,02:03259,"LA BOUTEILLE - LA HAUTE BONDE","",49.85236,3.95543,,,0,,,
02:03261,02:03261,"BUIRONFOSSE - RUE HERBIN PANNEAU","",49.95578,3.80705,,,0,,,
02:03262,02:03262,"BUIRONFOSSE - AR. DUFRESNOIS BOUJ","",49.94743,3.82623,,,0,,,
02:03270,02:03270,"LA NEUVILLE L. - JUNIERE","",49.99674,3.68867,,,0,,,
02:03271,02:03271,"LA NEUVILLE L. - GRAND FOUCOMME","",49.99498,3.70902,,,0,,,
02:03273,02:03273,"ESQUEHERIES - ECOLE PLACE","",49.98365,3.74723,,,0,,,
02:03274,02:03274,"VENEROLLES - PLACE ECOLE","",49.98144,3.63948,,,0,,,
02:03275,02:03275,"FESMY LE S. - FESMY ECOLE","",50.04099,3.67668,,,0,,,
02:03277,02:03277,"LANDOUZY LA V. - LE REGIMENT","",49.84799,4.06842,,,0,,,
02:03284,02:03284,"LA BOUTEILLE - X D751 RUE DE FOIG","",49.8653,3.96945,,,0,,,
02:03291,02:03291,"NEUILLY ST F. - PLACE CHAPELLE","",49.16829,3.26286,,,0,,,
02:03301,02:03301,"AUTRECHES - ABRI RUE PONT DRON","",49.44292,3.12746,,,0,,,
02:03302,02:03302,"AUTRECHES - CHEVILLECOURT EC.","",49.43815,3.13559,,,0,,,
02:03303,02:03303,"AUTRECHES - HAUTEBRAYE ABRI","",49.43292,3.12904,,,0,,,
02:03323,02:03323,"RESSONS LE L. - CENTRE","",49.38784,3.14906,,,0,,,
02:03549,02:03549,"FONSOMMES - PETIT FONSOMMES","",49.90058,3.37512,,,0,,,
02:03550,02:03550,"CROIX F. - ABRI MAIRIE","",49.92098,3.40305,,,0,,,
02:03557,02:03557,"FLOYON - LE PETIT FLOYON","",50.01734,3.89094,,,0,,,
02:03558,02:03558,"ESQUEHERIES - LA PETITE RUE ABRI","",49.99469,3.77175,,,0,,,
02:03561,02:03561,"VIELS MAISONS - MONTCEL ENGER ABR","",48.91157,3.41118,,,0,,,
02:03623,02:03623,"CRECY AU M. - LA VALLEE","",49.49335,3.31464,,,0,,,
02:03631,02:03631,"LA GROISE - CHAPEAU ROUGE","",50.05866,3.67148,,,0,,,
02:03659,02:03659,"FAYET - ARRET MAIRIE","",49.86809,3.2508,,,0,,,
02:03661,02:03661,"GRICOURT - RUE ROBESPIERRE","",49.88512,3.24804,,,0,,,
02:03675,02:03675,"CAUDRY - GARE ROUTIERE","",50.12784,3.41691,,,0,,,
02:03676,02:03676,"FROIDESTREES  - ABRI 31 RN2","",49.94392,3.90543,,,0,,,
02:03716,02:03716,"WIMY - ECREVEAUX CABINE TELEPHONI","",49.96339,3.98641,,,0,,,
02:03775,02:03775,"ETREAUPONT - X RUE DES TILLEULS","",49.90613,3.91375,,,0,,,
02:03859,02:03859,"THENAILLES - LE MARQUIS","",49.81212,3.94261,,,0,,,
02:03864,02:03864,"MONTLEVON - LA GIVERIE","",48.94645,3.51741,,,0,,,
02:03874,02:03874,"MONTMIRAIL - COLLEGE","",48.87625,3.54818,,,0,,,
02:03892,02:03892,"VIELS MAISONS - LE VINOT GUYARD","",48.91088,3.38582,,,0,,,
02:03924,02:03924,"HAUTEVILLE - MAIRIE","",49.87749,3.52135,,,0,,,
02:03929,02:03929,"SERY LES M. - ECOLE","",49.77379,3.41882,,,0,,,
02:03930,02:03930,"RIBEMONT - ECOLE PRIMAIRE","",49.79547,3.459,,,0,,,
02:03941,02:03941,"CHATEAU T. -COUVRECELLE GARE SNCF","",49.03641,3.40941,,,0,,,
02:03943,02:03943,"BUIRONFOSSE - ARISTIDE BRIAND","",49.96568,3.83602,,,0,,,
02:03944,02:03944,"WISSIGNICOURT - PLACE ABRI","",49.52315,3.44714,,,0,,,
02:03966,02:03966,"POUILLY S/ S. - ECOLE","",49.68098,3.59052,,,0,,,
02:03968,02:03968,"SEBONCOURT - ECOLE","",49.95405,3.477,,,0,,,
02:03973,02:03973,"MORTEFONTAINE - ABRI","",49.33004,3.0782,,,0,,,
02:03974,02:03974,"COINGT - ARRET RTA","",49.79493,4.10607,,,0,,,
02:03978,02:03978,"ENGLANCOURT - 3 RUE LAGASSE","",49.93457,3.80872,,,0,,,
02:03981,02:03981,"FRESNES EN T. - ABRI","",49.14636,3.55552,,,0,,,
02:03982,02:03982,"ENGLANCOURT - RUE LAGASSE EGLISE","",49.93642,3.81301,,,0,,,
02:03996,02:03996,"BUSIGNY - BASCULE","",50.03527,3.46432,,,0,,,
02:03997,02:03997,"BUSIGNY - GARE","",50.03962,3.44659,,,0,,,
02:04005,02:04005,"CELLES S/ A. - COUVAILLES","",49.40928,3.49427,,,0,,,
02:04011,02:04011,"FONTAINE LES C. - MAIRIE","",49.80634,3.22576,,,0,,,
02:04012,02:04012,"SERY LES M. - BOULANGERIE","",49.77598,3.42371,,,0,,,
02:04020,02:04020,"VICHEL N. - GARE DE NEUILLY","",49.18663,3.27067,,,0,,,
02:04028,02:04028,"LONGUEVAL B.  - ECOLE PRIMAIRE","",49.35971,3.65276,,,0,,,
02:04029,02:04029,"VILLIERS ST D. - ECOLES","",48.99461,3.26686,,,0,,,
02:04030,02:04030,"DOMPTIN - ECOLES","",49.01725,3.27631,,,0,,,
02:04031,02:04031,"MAISSEMY - ABRI MAIRIE","",49.89331,3.18885,,,0,,,
02:04032,02:04032,"MARCHAIS EN B. - LES CHOUTEAUX","",48.89621,3.47371,,,0,,,
02:04054,02:04054,"MONTIGNY L ALLIER - PLACE","",49.11145,3.10086,,,0,,,
02:04056,02:04056,"BARZY EN T. - ETREUX BAS","",50.03894,3.73039,,,0,,,
02:04069,02:04069,"VIFFORT - PERTIBOUT","",48.94563,3.46232,,,0,,,
02:04085,02:04085,"COYOLLES - ABRI","",49.23419,3.04271,,,0,,,
02:04086,02:04086,"MONTIGNY L. - ECOLE ABRI","",49.37534,3.0943,,,0,,,
02:04089,02:04089,"HARAMONT - SALLE DES FETES PERISC","",49.28007,3.06346,,,0,,,
02:04100,02:04100,"MONTIGNY S/ C. - FACE ABRI CUGNOT","",49.71577,3.58426,,,0,,,
02:04114,02:04114,"LANDOUZY LA V. - LE CRIQUET","",49.85526,4.06343,,,0,,,
02:04117,02:04117,"ERLOY - MAIRIE","",49.91417,3.82861,,,0,,,
02:04119,02:04119,"VILLERS C. - COLLEGE ST NICOLAS","",49.25541,3.0946,,,0,,,
02:04120,02:04120,"VAUX ANDIGNY -ANDIGNY LES F. MONU","",50.00115,3.54179,,,0,,,
02:04121,02:04121,"MONDREPUIS - RUE NEUVE ABRI","",49.968,4.02104,,,0,,,
02:04126,02:04126,"ESSIGNY LE GRAND - RUE ST SAULVE","",49.77603,3.27667,,,0,,,
02:04129,02:04129,"MONDREPUIS - LA MARNOISE ABRI","",49.96072,4.05427,,,0,,,
02:04130,02:04130,"NANTEUIL NOTRE D - MAIRIE ABRI","",49.19151,3.40912,,,0,,,
02:04131,02:04131,"ST GOBAIN-ECOLE MOULIN R deGAULLE","",49.59133,3.3775,,,0,,,
02:04133,02:04133,"TAILLEFONTAINE - EGLISE ABRI","",49.31252,3.04204,,,0,,,
02:04134,02:04134,"WATIGNY- 34 RUE DE SIGNY LE PETIT","",49.90507,4.20976,,,0,,,
02:04135,02:04135,"WATIGNY- 21 RUE DE SIGNY LE PETIT","",49.90489,4.20832,,,0,,,
02:04136,02:04136,"MONTIGNY EN ARROUAISE - ABRI","",49.90533,3.47482,,,0,,,
02:04138,02:04138,"MONTIGNY L. - VACHE NOIRE N31","",49.39592,3.11265,,,0,,,
02:04139,02:04139,"COUVRELLES - LA GARENNE","",49.34228,3.49114,,,0,,,
02:04140,02:04140,"COINCY - ECOLE PRIMAIRE","",49.16037,3.41702,,,0,,,
02:04151,02:04151,"RIBEMONT - ECOLE MATERNELLE","",49.79577,3.46138,,,0,,,
02:04152,02:04152,"GRICOURT - FRESNOY LE PETIT","",49.88472,3.2276,,,0,,,
02:04153,02:04153,"ETAVES ET BOCQUIAUX - BEAUTROUX","",49.92302,3.42826,,,0,,,
02:04155,02:04155,"BOHAIN EN V. - BOIS MIRAND","",50.00201,3.422,,,0,,,
02:04156,02:04156,"MONTIGNY EN ARROUAISE - X D13/D68","",49.90093,3.45765,,,0,,,
02:04157,02:04157,"GAUCHY - CIMETIERE ABRI","",49.82312,3.26934,,,0,,,
02:04158,02:04158,"VENEROLLES - LE BLOCUS","",50.00248,3.61071,,,0,,,
02:04159,02:04159,"MAIZY - HAUTE RIVE - LABORATOIRE","",49.37903,3.68551,,,0,,,
02:04161,02:04161,"VILLERS C. - EM SALENCON","",49.25427,3.08746,,,0,,,
02:04163,02:04163,"VIC SUR AISNE - ECOLE LUCIEN DAMY","",49.40561,3.11201,,,0,,,
02:04168,02:04168,"BRECY - RUE DE LA FOSETTE","",49.14619,3.4274,,,0,,,
02:04172,02:04172,"LOUPEIGNE - EGLISE","",49.24729,3.53488,,,0,,,
02:04184,02:04184,"VIVIERES - ABRI CIMETIERE","",49.29923,3.10615,,,0,,,
02:04187,02:04187,"SAPONAY-RUE DE FERE (parking ambu","",49.20824,3.49892,,,0,,,
02:04196,02:04196,"TRUCY - RUE POSSET ABRI","",49.47135,3.61539,,,0,,,
02:04204,02:04204,"ST QUENTIN - LA RAMEE RUE DUNANT","",49.85349,3.30096,,,0,,,
02:04205,02:04205,"ST QUENTIN - LYCEE JEAN BOUIN","",49.85102,3.30855,,,0,,,
02:04206,02:04206,"ST QUENTIN - RUE HERTZ CONDORCET","",49.86044,3.29438,,,0,,,
02:04207,02:04207,"ST QUENTIN - LA FAYETTE PRESSING","",49.85095,3.28742,,,0,,,
02:04208,02:04208,"ST QUENTIN -LA FAYETTE ROND POINT","",49.85096,3.28742,,,0,,,
02:04210,02:04210,"FLEURY - CHEVAUX","",49.25625,3.15975,,,0,,,
02:04213,02:04213,"ARTONGES - LA BELLE IDEE","",48.93707,3.54713,,,0,,,
02:04214,02:04214,"ARTONGES - PLACE EGLISE","",48.9293,3.55332,,,0,,,
02:04215,02:04215,"ARTONGES - MONTFLOBERT","",48.93822,3.55644,,,0,,,
02:04216,02:04216,"ARTONGES - CAFE DE LA GARE","",48.93331,3.55395,,,0,,,
02:04217,02:04217,"TAVAUX ET P.- RUE DU BLOC (ECOLE)","",49.7303,3.90145,,,0,,,
02:04218,02:04218,"COURCELLES S/V - ARRET PARKING","",49.33809,3.57155,,,0,,,
02:04220,02:04220,"OHIS - ECOLE","",49.92993,4.01055,,,0,,,
02:04222,02:04222,"MONTAIGU - CITE GARENNES","",49.53358,3.86433,,,0,,,
02:04225,02:04225,"JONCOURT - EGLISE","",49.95501,3.29998,,,0,,,
02:04226,02:04226,"LE HERIE LA V - ABRI RUE DU PUITS","",49.8225,3.64549,,,0,,,
02:04227,02:04227,"LE HERIE LA V - EGLISE","",49.82295,3.64538,,,0,,,
02:04232,02:04232,"MISSY LES P. - LE PRE GIBON","",49.63843,3.78102,,,0,,,
02:04237,02:04237,"BRUMETZ - MAIRIE ABRI","",49.10175,3.16102,,,0,,,
02:04238,02:04238,"SERAUCOURT LE G. - ECOLE","",49.78089,3.21265,,,0,,,
02:04242,02:04242,"JUSSY - 2 RUE DE FLAVY","",49.71725,3.22597,,,0,,,
02:04243,02:04243,"JUSSY - 10 RUE DE L'EMONTEAU","",49.71705,3.22669,,,0,,,
02:04245,02:04245,"MONCEAU LE F. - FACE FAUCOUZY ABR","",49.79171,3.63627,,,0,,,
02:04248,02:04248,"LAIGNY - 34 BOIS DE LAIGNY","",49.87712,3.87832,,,0,,,
02:04249,02:04249,"BESMONT - MAIRIE","",49.83539,4.12315,,,0,,,
02:04251,02:04251,"CONDE S/ A. PLACE EGLISE","",49.39739,3.46946,,,0,,,
02:04252,02:04252,"PASSY SUR MARNE - EGLISE ABRI","",49.06066,3.57153,,,0,,,
02:04257,02:04257,"LA MALMAISON - ABRI EGLISE","",49.5155,3.98004,,,0,,,
02:04258,02:04258,"COULONGES C. - ABRI","",49.20176,3.63584,,,0,,,
02:04262,02:04262,"BERRY AU B. - PARKING ZONE ACTIVI","",49.39645,3.90323,,,0,,,
02:04263,02:04263,"FONTENELLE - 24 LE DEFRICHE","",50.03323,3.82043,,,0,,,
02:04271,02:04271,"ST ERME O. - PLACE DES GALOPINS","",49.52034,3.8515,,,0,,,
02:04272,02:04272,"SOISSONS - JJ ROUSSEAU","",49.37712,3.3216,,,0,,,
02:04273,02:04273,"MONTMIRAIL - ECOLE MATERNELLE","",48.87676,3.54568,,,0,,,
02:04274,02:04274,"MONTMIRAIL - ECOLE PRIMAIRE","",48.87374,3.53693,,,0,,,
02:04275,02:04275,"VENDIERES - LE CHOISEL","",48.87447,3.44431,,,0,,,
02:04276,02:04276,"MONTMIRAIL - ETABLIS JEANNE D'ARC","",48.86923,3.53486,,,0,,,
02:04277,02:04277,"VENDIERES - BOULAN","",48.86693,3.44687,,,0,,,
02:04278,02:04278,"PETIT VERLY- PLACE EMILE MONFRONT","",49.97206,3.55748,,,0,,,
02:04279,02:04279,"VEZAPONIN - ABRI","",49.4581,3.22959,,,0,,,
02:04280,02:04280,"LONGUEVAL B.-  PLACE ABRI","",49.35764,3.65263,,,0,,,
02:04281,02:04281,"EBOULEAU - PLACE DU MONUMENT","",49.67253,3.87607,,,0,,,
02:04282,02:04282,"CLERMONT LES F. - COUR DES FERMES","",49.66738,3.93733,,,0,,,
02:04299,02:04299,"ST QUENTIN - EGLISE SAINT JEAN","",49.85351,3.28228,,,0,,,
02:04300,02:04300,"MONTAIGU - BEL AIR","",49.57089,3.87623,,,0,,,
02:04304,02:04304,"BRANCOURT EN L.  - MAIRIE ECOLE","",49.5133,3.41883,,,0,,,
02:04305,02:04305,"PREMONTRE - GROUPE SCOL LETOMBE","",49.54023,3.41407,,,0,,,
02:04306,02:04306,"LESDINS - ECOLE","",49.89483,3.32178,,,0,,,
02:04309,02:04309,"TROISVILLE - EGLISE","",50.10513,3.47023,,,0,,,
02:04310,02:04310,"BERTRY - MAIRIE","",50.0866,3.44396,,,0,,,
02:04311,02:04311,"ESNES - MAIRIE","",50.10127,3.31319,,,0,,,
02:04312,02:04312,"LIGNY EN CAMBRESIS - MAIRIE","",50.10006,3.37798,,,0,,,
02:04313,02:04313,"WALINCOURT SELVIGNY - PLACE","",50.07002,3.33658,,,0,,,
02:04314,02:04314,"ELINCOURT - SOLEIL D'OR","",50.04238,3.37016,,,0,,,
02:04315,02:04315,"CAULLERY - PLACE","",50.08495,3.37172,,,0,,,
02:04316,02:04316,"HONNECHY - MAIRIE","",50.06902,3.47221,,,0,,,
02:04317,02:04317,"MARETZ - RUE DE LA REPUBLIQUE","",50.04741,3.42087,,,0,,,
02:04318,02:04318,"OMISSY - MAIRIE ECOLE","",49.87988,3.31478,,,0,,,
02:04319,02:04319,"MESNIL ST L.  - ABRI MAIRIE","",49.82966,3.35581,,,0,,,
02:04320,02:04320,"CHATEAU T. - MENNONERIE","",49.04822,3.38335,,,0,,,
02:04321,02:04321,"CHATEAU T. - BUISSON","",49.05121,3.38091,,,0,,,
02:04322,02:04322,"CHATEAU T. - VINCELLES","",49.05035,3.37521,,,0,,,
02:04323,02:04323,"CHATEAU T. - LES MARAIS","",49.04444,3.38207,,,0,,,
02:04324,02:04324,"CHATEAU T. - LOUVETS","",49.05245,3.38819,,,0,,,
02:04325,02:04325,"CHATEAU T. - CHAMPAGNE","",49.05455,3.38573,,,0,,,
02:04326,02:04326,"CHATEAU T. - 3 PIERRES","",49.05957,3.38657,,,0,,,
02:04327,02:04327,"CHATEAU T. - FONDERIE","",49.05686,3.39512,,,0,,,
02:04328,02:04328,"CHATEAU T. - BLANCHARD","",49.06083,3.39487,,,0,,,
02:04331,02:04331,"CHATEAU T. - CATILLON","",49.04907,3.37766,,,0,,,
02:04332,02:04332,"CHATEAU T. - ROOSEVELT","",49.04368,3.38411,,,0,,,
02:04333,02:04333,"CHATEAU T. - PATIS ST MARTIN","",49.04335,3.3872,,,0,,,
02:04335,02:04335,"CHATEAU T. - GALLEGO PISCINE","",49.03724,3.38287,,,0,,,
02:04336,02:04336,"CHATEAU T. - P.CLAUDEL","",49.03933,3.3815,,,0,,,
02:04337,02:04337,"CHATEAU T. - MARE AUBRY","",49.04292,3.38633,,,0,,,
02:04338,02:04338,"CHATEAU T. - PARADIS","",49.04909,3.37759,,,0,,,
02:04339,02:04339,"CHATEAU T. - A. BRIAND","",49.04299,3.39225,,,0,,,
02:04340,02:04340,"CHATEAU T. - P.M. CURIE","",49.04313,3.3955,,,0,,,
02:04341,02:04341,"CHATEAU T. - J. MOULIN","",49.04372,3.39882,,,0,,,
02:04342,02:04342,"CHATEAU T. - RACINE","",49.04679,3.39866,,,0,,,
02:04343,02:04343,"CHATEAU T. - PETITS CHAMPS","",49.05,3.39778,,,0,,,
02:04344,02:04344,"CHATEAU T. - CLOS DES VIGNES","",49.06056,3.38193,,,0,,,
02:04345,02:04345,"CHATEAU T. - L'ALEXANDRIN","",49.06222,3.38405,,,0,,,
02:04346,02:04346,"CHATEAU T. - LAUCONNOIS","",49.06402,3.38169,,,0,,,
02:04347,02:04347,"CHATEAU T.  - BALLADE","",49.063,3.38791,,,0,,,
02:04348,02:04348,"CHATEAU T. - L'HORLOGE","",49.06184,3.39225,,,0,,,
02:04349,02:04349,"CHATEAU T. - JEAN JAURES","",49.04595,3.39358,,,0,,,
02:04350,02:04350,"CHATEAU T. - OTMUS","",49.04795,3.38909,,,0,,,
02:04351,02:04351,"CHATEAU T. - COMTESSE","",49.04951,3.3873,,,0,,,
02:04352,02:04352,"CHIERRY - ECOLE","",49.04002,3.42796,,,0,,,
02:04354,02:04354,"BLESMES - MAIRIE","",49.03755,3.45019,,,0,,,
02:04355,02:04355,"ESSOMES S/M.  - ECOLE LES BLEUETS","",49.02714,3.36963,,,0,,,
02:04356,02:04356,"ESSOMES S/ M. - ECOLE 204","",49.02713,3.3696,,,0,,,
02:04358,02:04358,"BRASLES - FACE MAIRIE","",49.04792,3.42648,,,0,,,
02:04359,02:04359,"GLAND - GREVES","",49.04917,3.46645,,,0,,,
02:04360,02:04360,"GLAND - ECOLE","",49.04741,3.4623,,,0,,,
02:04361,02:04361,"GLAND - LES COQUINS","",49.0466,3.45668,,,0,,,
02:04362,02:04362,"CHATEAU T. - MAUGUINS","",49.04942,3.38541,,,0,,,
02:04366,02:04366,"BOUE - SALLE DES FETES","",50.01209,3.70103,,,0,,,
02:04377,02:04377,"RIBEAUVILLE - 1 RUE DU CATEAU","",50.03924,3.57846,,,0,,,
02:04381,02:04381,"CHAUDARDES - EGLISE","",49.39172,3.79058,,,0,,,
02:04383,02:04383,"BUSIGNY - CHAPELLE","",50.02935,3.46195,,,0,,,
02:04384,02:04384,"BRANCOURT EN L - PARKING ECOLE P.","",49.51214,3.41912,,,0,,,
02:04392,02:04392,"ROUTE DE CLAIRFONTAINE D411","",49.96717,3.96197,,,0,,,
02:04396,02:04396,"MERVAL - X RUE DU BASSIN","",49.34773,3.69614,,,0,,,
02:04400,02:04400,"SEBONCOURT - 56 RUE DE LA VALLEE","",49.95739,3.48931,,,0,,,
02:04401,02:04401,"VIERZY - MAIRIE","",49.29154,3.28477,,,0,,,
02:04402,02:04402,"PARCY T. - TIGNY PL MARINIERE AB","",49.27837,3.33617,,,0,,,
02:04403,02:04403,"BILLY S/ O. - FACE ABRI","",49.2158,3.30203,,,0,,,
02:04404,02:04404,"CHASSEMY - PLACE RUE DE LA PLAINE","",49.38145,3.50546,,,0,,,
02:04406,02:04406,"LIESSE - GROUPE SCOLAIRE","",49.604,3.80605,,,0,,,
02:04410,02:04410,"BUSIGNY - GENDARMERIE","",50.03448,3.46053,,,0,,,
02:04414,02:04414,"ST QUENTIN - LA PAIX RUE H.DUNANT","",49.85412,3.30342,,,0,,,
02:04421,02:04421,"CHEVRESIS M. - ABRI 2 RUE DU CHAT","",49.75443,3.57097,,,0,,,
02:04423,02:04423,"ESQUEHERIES - FACE ABRI","",49.98592,3.74277,,,0,,,
02:04436,02:04436,"LISLET - FACE ARRET MAIRIE","",49.6853,4.02171,,,0,,,
02:04437,02:04437,"LISLET - MAIRIE","",49.68539,4.02162,,,0,,,
02:04446,02:04446,"FONTAINE U. - 75 RUE DE LA MAIRIE","",49.92179,3.37058,,,0,,,
02:04455,02:04455,"MONTIGNY LES CONDE - MAIRIE","",48.98563,3.56765,,,0,,,
02:04456,02:04456,"MONTIGNY LES C- PLACE DE L'EGLISE","",48.98655,3.56765,,,0,,,
02:04457,02:04457,"SEQUEHART - PLACE","",49.92985,3.33311,,,0,,,
02:04462,02:04462,"BEAURIEUX-BAS POTEAU RTA RUE PAVE","",49.39015,3.73487,,,0,,,
02:04464,02:04464,"SOISSONS - ARRET DUMAS 1","",49.38718,3.32341,,,0,,,
02:04465,02:04465,"SOISSONS - ARRET DUMAS 2","",49.38736,3.32472,,,0,,,
02:04466,02:04466,"SOISSONS - ARRET JARDIN HORTI 1","",49.3758,3.32909,,,0,,,
02:04469,02:04469,"SOISSONS - MANTOUE","",49.38128,3.32437,,,0,,,
02:04470,02:04470,"URVILLERS - FACE LOT. CORNET D'OR","",49.79934,3.32181,,,0,,,
02:04471,02:04471,"URVILLERS - LOT. CORNET D'OR","",49.79933,3.32176,,,0,,,
02:04472,02:04472,"CHAOURSE - FACE PLACE","",49.70426,3.99847,,,0,,,
02:04474,02:04474,"DAMPLEUX - ROUTE D'OIGNY","",49.24481,3.152,,,0,,,
02:04482,02:04482,"BRUNEHAMEL - FACE ECOLES","",49.77016,4.18059,,,0,,,
02:04483,02:04483,"LEME - FACE ABRI ECOLE","",49.83742,3.76318,,,0,,,
02:04484,02:04484,"LEME  - ABRI 42 RUE DE LA NATION","",49.84641,3.7687,,,0,,,
02:04487,02:04487,"FONTAINE N.D - ABRI RUE DU CHATEA","",49.88466,3.4305,,,0,,,
02:04492,02:04492,"SERAUCOURT LE G.-11 RUE H.POIZOT","",49.77854,3.21088,,,0,,,
02:04494,02:04494,"SERAUCOURT LE G. - ABRI MAIRIE","",49.78125,3.21192,,,0,,,
02:04495,02:04495,"SERAUCOURT LE G - 10 RUE HAMEL","",49.78579,3.2086,,,0,,,
02:04502,02:04502,"HAUCOURT EN C. ABRI RUE DE GAULLE","",50.10585,3.34232,,,0,,,
02:04503,02:04503,"HAUCOURT EN C. FACE ABRI DE GAULL","",50.10588,3.34297,,,0,,,
02:04504,02:04504,"CROIX F. - FACE ABRI MAIRIE","",49.92096,3.40297,,,0,,,
02:04505,02:04505,"BOHAIN EN V.  - 15 RUE FAGARD","",49.98728,3.4538,,,0,,,
02:04514,02:04514,"SISSY - MAIRIE","",49.80331,3.43325,,,0,,,
02:04519,02:04519,"TAVAUX ET P.-FACE ABRI 5 R. MALAI","",49.73003,3.90932,,,0,,,
02:04535,02:04535,"JUSSY - ABRI 5 AVE DE LA VICTOIRE","",49.72318,3.2334,,,0,,,
02:04538,02:04538,"LIGNY EN C. - ABRI RUE DE CAMBRAI","",50.10327,3.37135,,,0,,,
02:04542,02:04542,"FROIDESTREES - 6 RN2","",49.94922,3.90716,,,0,,,
02:04543,02:04543,"FROIDESTREES - 71 RN2","",49.94097,3.9044,,,0,,,
02:04553,02:04553,"VENDEUIL - FACE ABRI 30 ST JEAN","",49.72132,3.34971,,,0,,,
02:04561,02:04561,"GROUGIS - ABRI MAIRIE","",49.94305,3.53302,,,0,,,
02:04562,02:04562,"GROUGIS - FACE ABRI MAIRIE","",49.9429,3.53295,,,0,,,
02:04564,02:04564,"GROUGIS - FACE ABRI 43 RUE VERDUN","",49.94309,3.52264,,,0,,,
02:04565,02:04565,"JAULGONNE - LOT. LES ACACIAS","",49.08403,3.52932,,,0,,,
02:04570,02:04570,"SAINTE PREUVE - N°1 JARDINS","",49.61846,3.90763,,,0,,,
02:04571,02:04571,"ROUVROY - MAIRIE","",49.85436,3.318,,,0,,,
02:04583,02:04583,"BUCILLY - FACE ABRI 4 RUE D'HIRSO","",49.87728,4.0928,,,0,,,
02:04584,02:04584,"BUCILLY - ABRI 5 RUE DE VERDUN","",49.87647,4.09338,,,0,,,
02:04587,02:04587,"FRANCILLY S.  - FACE ABRI EGLISE","",49.85632,3.22514,,,0,,,
02:04609,02:04609,"IVIERS - FACE ABRI MAIRIE","",49.78381,4.14557,,,0,,,
02:04610,02:04610,"RIBEMONT-ABRI LUCY R. PLEINE SELV","",49.80937,3.47696,,,0,,,
02:04611,02:04611,"MOY DE L. - FACE FERME GUINGUETTE","",49.75864,3.33864,,,0,,,
02:04614,02:04614,"CHAVIGNON - ECOLE","",49.47961,3.52003,,,0,,,
02:04615,02:04615,"NEUVILLE ST A. -101 RUE DE LA FER","",49.82657,3.30945,,,0,,,
02:04621,02:04621,"ANCIENVILLE - FACE MAIRIE ABRI","",49.21811,3.21448,,,0,,,
02:04622,02:04622,"NOROY S/ O.- MONUMENT AUX MORTS","",49.20456,3.2114,,,0,,,
02:04783,02:04783,"BRUNEHAMEL - HAMEAU GRANDES OUIES","",49.75841,4.19231,,,0,,,
02:04859,02:04859,"GRUGIES - FACE LOT. LIMOUSIN","",49.81863,3.26432,,,0,,,
02:04860,02:04860,"GRUGIES-FACE ABRI 19 RUE PICARDIE","",49.81539,3.26377,,,0,,,
02:04861,02:04861,"GRUGIES -  LOTISSEMENT LIMOUSIN","",49.81862,3.2644,,,0,,,
02:04862,02:04862,"GRUGIES- FACEABRI 82 RUE DE PICAR","",49.81188,3.26637,,,0,,,
02:04899,02:04899,"MONT ST PERE - FACE ECLUSE","",49.06947,3.48229,,,0,,,
02:04920,02:04920,"MESBRECOURT R.-126 RUE FABRIQUE","",49.70257,3.56354,,,0,,,
02:04921,02:04921,"MESBRECOURT R.- 2 RUE LA FABRIQUE","",49.70264,3.56323,,,0,,,
02:04922,02:04922,"RIBEMONT -FACE LUCY ABRI","",49.80859,3.47641,,,0,,,
02:04923,02:04923,"BEZU LE GUERY - VENTELET","",49.02676,3.24241,,,0,,,
02:04926,02:04926,"ESSOMES S/ M. - ROUVROY FACE ABRI","",49.00759,3.37519,,,0,,,
02:04928,02:04928,"CYS LA C. - ABRI LE RHU","",49.38861,3.57928,,,0,,,
02:04937,02:04937,"MONT ST M. - FACE ABRI","",49.28226,3.63967,,,0,,,
02:04941,02:04941,"BELLEAU - MAIRIE FACE ABRI","",49.08543,3.29055,,,0,,,
02:04942,02:04942,"TORCY EN V.  - FACE ABRI","",49.08768,3.27925,,,0,,,
02:04943,02:04943,"ETREPILLY - 2 RTE DE CHAT THIERRY","",49.0845,3.34038,,,0,,,
02:04944,02:04944,"BEZU LE G. - PISSELOUP FACE ABRI","",49.00656,3.19849,,,0,,,
02:04951,02:04951,"TAILLEFONTAINE - CALVAIRE","",49.31249,3.04315,,,0,,,
02:04952,02:04952,"SOISSONS-GARE SNCF 81 AV G GAULLE","",49.36996,3.3372,,,0,,,
02:04953,02:04953,"SOISSONS-GARE SNCF 52 AV G GAULLE","",49.36992,3.33722,,,0,,,
02:04954,02:04954,"BONNEIL - COOPERATIVE AGRICOLE","",49.00858,3.35339,,,0,,,
02:04955,02:04955,"CLERMONT LES F. - FACE ABRI","",49.6668,3.93823,,,0,,,
02:04956,02:04956,"GOUDELANCOURT LES P. - FACE ABRI","",49.66921,3.85354,,,0,,,
02:04957,02:04957,"GOUDELANCOURT LES P. -ABRI MAIRIE","",49.66721,3.85379,,,0,,,
02:04958,02:04958,"CHATILLON S/ O - 5 RUE DE L'ECLUS","",49.79136,3.41924,,,0,,,
02:04959,02:04959,"COINCY - FACE ABRI MAIRIE","",49.16067,3.4212,,,0,,,
02:04960,02:04960,"CHOUY - FACE ABRI","",49.20606,3.24931,,,0,,,
02:04964,02:04964,"REMIES - ABRI RUE BON PUITS","",49.67825,3.52088,,,0,,,
02:04968,02:04968,"GRANDRIEUX- ABRI 15 GARDE DE DIEU","",49.7347,4.17314,,,0,,,
02:04980,02:04980,"CHAILLEVOIS - FACE 15 RUE D'ANIZY","",49.51176,3.52547,,,0,,,
02:04982,02:04982,"MORSAIN - FACE 44 BERLINVAL","",49.45704,3.19766,,,0,,,
02:04983,02:04983,"VASSENS - FACE ABRI","",49.46783,3.15454,,,0,,,
02:04984,02:04984,"MORSAIN - OEUILLY FACE ABRI","",49.45739,3.19774,,,0,,,
02:05006,02:05006,"SAINS RICHAUMONT - RUE DU TEMPLE","",49.82925,3.71819,,,0,,,
02:05009,02:05009,"MARIGNY EN O. - LES GLANDONS","",49.05655,3.28219,,,0,,,
02:05013,02:05013,"VILLENEUVE SUR AISNE - LA ROTONDE","",0.0,0.0,,,0,,,
02:05045,02:05045,"DHUIZEL - 21RUE DE COURCELLES","",49.36594,3.61936,,,0,,,
02:05046,02:05046,"DHUIZEL - FACE 21 RUE DE COURCELL","",49.36589,3.61927,,,0,,,
02:05053,02:05053,"GIZY - ABRI 15 RUE DE LA GARE","",49.60817,3.79209,,,0,,,
02:05054,02:05054,"GIZY - 13 RUE DE LA POSTE","",49.60135,3.77387,,,0,,,
02:05058,02:05058,"MESBRECOURT R-FACE ABRI 14 GD RUE","",49.70276,3.54304,,,0,,,
02:05061,02:05061,"ROZOY S/S.-FACE ABRI NOTRE DAME","",49.71291,4.1286,,,0,,,
02:05062,02:05062,"ROZOY S/S-ABRI RUE NOTRE DAME","",49.7132,4.12871,,,0,,,
02:05064,02:05064,"VOULPAIX - FACE ABRI","",49.83797,3.83095,,,0,,,
02:05069,02:05069,"ESSOMES S/M. - N°1 LE THIOLET","",49.03918,3.31179,,,0,,,
02:05070,02:05070,"ESSOMES S/M. - N°2 LE THIOLET","",49.03947,3.31283,,,0,,,
