stop_id,stop_code,stop_name,stop_desc,stop_lat,stop_lon,zone_id,stop_url,location_type,parent_station,stop_timezone,wheelchair_boarding
02:00001,02:00001,"BEAURIEUX - HAUT RUE GROSSE PIERR","",49.39386,3.73976,,,0,,,
02:00002,02:00002,"BEAURIEUX - BAS GARE","",49.38645,3.73584,,,0,,,
02:00003,02:00003,"BEAURIEUX - 6 RUE C. DE GAULLE","",49.39014,3.73378,,,0,,,
02:00005,02:00005,"OEUILLY - PLACE ABRI","",49.39114,3.68668,,,0,,,
02:00007,02:00007,"BOURG ET C. - ABRI","",49.39695,3.65725,,,0,,,
02:00008,02:00008,"MOUSSY V. - MOUSSY VERNEUIL","",49.41576,3.63326,,,0,,,
02:00009,02:00009,"PONT ARCY - GARE","",49.39946,3.633,,,0,,,
02:00010,02:00010,"SOUPIR - ABRI","",49.40627,3.59535,,,0,,,
02:00011,02:00011,"CYS LA C. - MAIRIE","",49.39263,3.57062,,,0,,,
02:00012,02:00012,"PRESLES ET B. - ABRI MAIRIE","",49.39361,3.55887,,,0,,,
02:00014,02:00014,"PRESLES ET B. - ST AUDEBERT ABRI","",49.39776,3.53445,,,0,,,
02:00015,02:00015,"PRESLES ET B. - CROIX ST THOMAS","",49.39655,3.52817,,,0,,,
02:00016,02:00016,"PRESLES ET B. - PONT DE VAILLY","",49.40113,3.51635,,,0,,,
02:00017,02:00017,"VAILLY S/ A. - CAFE DE LA GARE","",49.40583,3.51522,,,0,,,
02:00019,02:00019,"AIZY JOUY - MAIRIE ECOLE ABRI","",49.43617,3.51461,,,0,,,
02:00023,02:00023,"CONDE S/ A. - GARE","",49.40128,3.4762,,,0,,,
02:00024,02:00024,"CONDE S/ A. - ABRI","",49.39734,3.46933,,,0,,,
02:00025,02:00025,"MISSY S/ A. - CAFE","",49.38669,3.43593,,,0,,,
02:00027,02:00027,"BUCY LE L. - STE MARGUERITE","",49.39029,3.41339,,,0,,,
02:00029,02:00029,"BUCY LE L. - CREPERIE","",49.38962,3.39877,,,0,,,
02:00030,02:00030,"BUCY LE L. - CAFE TABAC","",49.39093,3.39253,,,0,,,
02:00031,02:00031,"BUCY LE L. - DISTILLERIE","",49.39422,3.36928,,,0,,,
02:00032,02:00032,"CROUY - PONT DE JOCIENNE","",49.3962,3.35591,,,0,,,
02:00034,02:00034,"SOISSONS - GARE SNCF","",49.36991,3.33725,,,0,,,
02:00035,02:00035,"SOISSONS - LE CORBUSIER CITE SCOL","",49.36417,3.31552,,,0,,,
02:00038,02:00038,"CHAVONNE - ABRI","",49.40337,3.57306,,,0,,,
02:00039,02:00039,"BUCY LE L. - LE MONCEL","",49.39044,3.40566,,,0,,,
02:00040,02:00040,"LAON - COLL. J. MERMOZ","",49.56595,3.5937,,,0,,,
02:00042,02:00042,"LAON - LY PIERRE MECHAIN","",49.56182,3.63762,,,0,,,
02:00043,02:00043,"LAON - COLL.CHARLEMAGNE","",49.56187,3.6419,,,0,,,
02:00044,02:00044,"LAON - GARE ROUTIERE","",49.56995,3.62571,,,0,,,
02:00046,02:00046,"LAON - LY. PAUL CLAUDEL","",49.56454,3.60901,,,0,,,
02:00047,02:00047,"LAON - COLL LENAIN","",49.56178,3.61134,,,0,,,
02:00048,02:00048,"LAON - X LA NEUVILLE TUL","",49.57068,3.59505,,,0,,,
02:00050,02:00050,"BESNY ET L. - PLACE PUBLIQUE","",49.60083,3.5813,,,0,,,
02:00052,02:00052,"VIVAISE - ABRI","",49.61958,3.56014,,,0,,,
02:00053,02:00053,"CREPY  - NOTRE DAME","",49.60113,3.51586,,,0,,,
02:00054,02:00054,"CREPY  - GARE","",49.6234,3.5162,,,0,,,
02:00055,02:00055,"CREPY - PL.MARRONNIERS","",49.6089,3.51212,,,0,,,
02:00056,02:00056,"CREPY - PL. ST PIERRE","",49.60579,3.51178,,,0,,,
02:00057,02:00057,"BRIE - BRIQUETTERIE","",49.60295,3.49831,,,0,,,
02:00058,02:00058,"BRIE - CENTRE","",49.60118,3.48232,,,0,,,
02:00059,02:00059,"FOURDRAIN - ABRI RTA","",49.61016,3.47361,,,0,,,
02:00060,02:00060,"FOURDRAIN - MAIRIE","",49.61283,3.47019,,,0,,,
02:00061,02:00061,"FOURDRAIN - LA BOVETTE TRANSF","",49.6215,3.46061,,,0,,,
02:00062,02:00062,"COUVRON ET A. -  ABRI GRAND PLACE","",49.64163,3.51553,,,0,,,
02:00063,02:00063,"COUVRON ET A. - RUE MONCEAU LEUP","",49.64637,3.52028,,,0,,,
02:00066,02:00066,"NOUVION ET C-PT A BUCY 4 PONCEAUX","",49.69037,3.48518,,,0,,,
02:00067,02:00067,"NOUVION LE C. - ABRI ECOLE","",49.69942,3.4614,,,0,,,
02:00068,02:00068,"NOUVION ET C. - FACE ABRI","",49.70299,3.4815,,,0,,,
02:00069,02:00069,"RIBEMONT - COLLEGE","",49.80067,3.46713,,,0,,,
02:00070,02:00070,"RIBEMONT - MAIRIE ABRI","",49.79545,3.45877,,,0,,,
02:00084,02:00084,"ST QUENTIN - LYCEE CONDORCET","",49.86025,3.29454,,,0,,,
02:00085,02:00085,"LAON - RTA","",49.57856,3.64203,,,0,,,
02:00087,02:00087,"MARLY GOMONT - MAIRIE","",49.90575,3.79216,,,0,,,
02:00088,02:00088,"ST ALGIS -  CALVAIRE ABRI","",49.90137,3.82027,,,0,,,
02:00089,02:00089,"AUTREPPES - CAFE TABAC","",49.9042,3.85505,,,0,,,
02:00090,02:00090,"ERLOY - ARRET","",49.91476,3.82971,,,0,,,
02:00091,02:00091,"SORBAIS - VILLAGE","",49.9083,3.89469,,,0,,,
02:00092,02:00092,"SORBAIS - CROISEMENT D31","",49.8997,3.88625,,,0,,,
02:00093,02:00093,"ETREAUPONT - ABRI D31","",49.89973,3.91284,,,0,,,
02:00094,02:00094,"ETREAUPONT - RUE A. LESDANT","",49.90611,3.91367,,,0,,,
02:00095,02:00095,"GERGNY - ARRET","",49.91492,3.93368,,,0,,,
02:00096,02:00096,"LUZOIR - ARRET","",49.92504,3.96264,,,0,,,
02:00097,02:00097,"EFFRY - CAFE DE LA GARE","",49.92765,3.98337,,,0,,,
02:00099,02:00099,"OHIS - ARRET","",49.93154,4.01353,,,0,,,
02:00102,02:00102,"NEUVE MAISON - PL GUY FERCHAUD","",49.93366,4.03124,,,0,,,
02:00103,02:00103,"HIRSON - GARE ROUTIERE","",49.93047,4.07691,,,0,,,
02:00104,02:00104,"HIRSON - ENFANT JESUS","",49.92182,4.0792,,,0,,,
02:00105,02:00105,"HIRSON - ECOLE VICTOR HUGO","",49.91864,4.08572,,,0,,,
02:00106,02:00106,"NEUILLY ST F. - X 973 ET D82","",49.16842,3.26285,,,0,,,
02:00107,02:00107,"HIRSON - COLLEGE G.COBAST","",49.92352,4.09415,,,0,,,
02:00108,02:00108,"HIRSON - PL DE LA VICTOIRE","",49.93142,4.07312,,,0,,,
02:00110,02:00110,"HIRSON - GARE SNCF","",49.91451,4.08418,,,0,,,
02:00115,02:00115,"BUIRE -  VILLAGE ABRI","",49.90345,4.05621,,,0,,,
02:00118,02:00118,"BEZU ST G. - BEZUET","",49.0869,3.39737,,,0,,,
02:00120,02:00120,"CHATEAU T. - LES CHESNEAUX","",49.05306,3.39697,,,0,,,
02:00121,02:00121,"CHATEAU T. - GARE ROUTIERE","",49.04488,3.40652,,,0,,,
02:00126,02:00126,"CHATEAU T. - CAISSE D'EPARGNE","",49.04677,3.3987,,,0,,,
02:00129,02:00129,"NEUILLY ST F. - ABRI RASSY","",49.15411,3.26979,,,0,,,
02:00131,02:00131,"ST GENGOULPH - X D84/D844","",49.12089,3.21737,,,0,,,
02:00134,02:00134,"LICY CLIGNON - EGLISE","",49.09999,3.27447,,,0,,,
02:00137,02:00137,"NOGENT L A. - LES MARRONNIERS","",48.96506,3.32816,,,0,,,
02:00139,02:00139,"NOGENT L A. - LA GENESTRE ABRI","",48.94499,3.3511,,,0,,,
02:00140,02:00140,"NOGENT L A. - CHEROST CENTRE","",48.94575,3.35557,,,0,,,
02:00141,02:00141,"LA CHAPELLE S. - PLACE","",48.94653,3.37789,,,0,,,
02:00142,02:00142,"LA CHAPELLE S. - CAQUETONS ABRI","",48.94671,3.39224,,,0,,,
02:00144,02:00144,"VIELS MAISONS - PLACE","",48.89599,3.39711,,,0,,,
02:00146,02:00146,"L EPINE AUX B. - LA HAUTE EPINE","",48.89557,3.44529,,,0,,,
02:00147,02:00147,"ROZOY B. - EGLISE","",48.92566,3.45629,,,0,,,
02:00148,02:00148,"MONTFAUCON - CHAMP DE FAYE","",48.93505,3.44254,,,0,,,
02:00149,02:00149,"MONTFAUCON - MAIRIE","",48.94389,3.42953,,,0,,,
02:00150,02:00150,"MONTFAUCON - COURLEVON","",48.94964,3.42231,,,0,,,
02:00151,02:00151,"ESSISES - PLACE","",48.96165,3.41965,,,0,,,
02:00152,02:00152,"CHEZY S/ M. - LES ROCHES LAVOIR","",48.98414,3.39326,,,0,,,
02:00153,02:00153,"CHEZY S/ M. - LES ROCHES PRESS.","",48.98512,3.38298,,,0,,,
02:00154,02:00154,"CHEZY S/ M. - X ROCHES - MONCET","",48.98454,3.37915,,,0,,,
02:00155,02:00155,"CHEZY S/ M. - RUE DE FOSSOT","",48.98961,3.3688,,,0,,,
02:00156,02:00156,"CHEZY S/ M. - PL. DE LA MAIRIE","",48.98909,3.36635,,,0,,,
02:00157,02:00157,"NOGENTEL - ARRET","",49.01442,3.40144,,,0,,,
02:00158,02:00158,"NOGENTEL - LA BARONNE","",49.02055,3.40517,,,0,,,
02:00160,02:00160,"MARIGNY EN O. - CORMONT","",49.05505,3.22066,,,0,,,
02:00165,02:00165,"ESSOMES S/ M. - CROGIS","",49.02539,3.34864,,,0,,,
02:00167,02:00167,"ESSOMES S/ M. - 43B RUE FOURRIER","",49.02986,3.3665,,,0,,,
02:00168,02:00168,"CHATEAU T. - CASTEL REPOS ABR.","",49.03965,3.38656,,,0,,,
02:00169,02:00169,"CHATEAU T. - PL. A. BRIAND","",49.04298,3.39224,,,0,,,
02:00170,02:00170,"CHATEAU T. - LA POSTE","",49.04416,3.39938,,,0,,,
02:00172,02:00172,"NOYANT ET A. - RTE CHATEAU THIERR","",49.33273,3.32829,,,0,,,
02:00173,02:00173,"BERZY LE S. - GARE","",49.33508,3.32705,,,0,,,
02:00175,02:00175,"VILLEMONTOIRE - RTE DE TAUX TIGNY","",49.2859,3.34397,,,0,,,
02:00176,02:00176,"HARTENNES ET T. - FACE ABRI PLACE","",49.26984,3.35336,,,0,,,
02:00178,02:00178,"OULCHY LA V. - ABRI PLACE","",49.21329,3.35066,,,0,,,
02:00180,02:00180,"BRENY - ABRI","",49.18592,3.3536,,,0,,,
02:00185,02:00185,"ROCOURT ST M. - MAIRIE","",49.15187,3.38749,,,0,,,
02:00188,02:00188,"BEZU ST G. - PLACE MAIRIE ABRI","",49.10829,3.40873,,,0,,,
02:00190,02:00190,"CHATEAU T. - LYCEE LA FONTAINE","",49.05169,3.38667,,,0,,,
02:00191,02:00191,"CHATEAU T. - CES JEAN ROSTAND","",49.05915,3.38407,,,0,,,
02:00192,02:00192,"CHATEAU T. - HOPITAL","",49.05197,3.41253,,,0,,,
02:00193,02:00193,"CHATEAU T. - CITE TECH J.VERNE","",49.05304,3.40015,,,0,,,
02:00194,02:00194,"CHATEAU T. - GARE SNCF","",49.03827,3.40925,,,0,,,
02:00195,02:00195,"CHATEAU T. - PLACE THIERS","",49.04261,3.4012,,,0,,,
02:00196,02:00196,"BUZANCY - POTEAU RTA","",49.3139,3.34723,,,0,,,
02:00197,02:00197,"COINCY  - ABRI MAIRIE","",49.16061,3.42117,,,0,,,
02:00201,02:00201,"BRASLES - RTA","",49.04407,3.41442,,,0,,,
02:00203,02:00203,"ROZET ST A. - CROISEMENT ECOLE","",49.19595,3.30514,,,0,,,
02:00204,02:00204,"ARCY STE R. - SERVENAY","",49.24216,3.4414,,,0,,,
02:00206,02:00206,"ARCY STE R. - BRANGES","",49.2667,3.49991,,,0,,,
02:00210,02:00210,"BAULNE EN B. - MONTCHEVRET","",48.99856,3.59572,,,0,,,
02:00211,02:00211,"BAULNE EN B. - ARRET RTA","",48.98633,3.61179,,,0,,,
02:00212,02:00212,"LE BREUIL - PLACE","",48.97632,3.64773,,,0,,,
02:00213,02:00213,"LE BREUIL - L'HUIS","",48.98868,3.64049,,,0,,,
02:00215,02:00215,"ST AGNAN - EVRIL","",49.02054,3.60336,,,0,,,
02:00216,02:00216,"ST AGNAN - PLACE","",49.02043,3.59499,,,0,,,
02:00217,02:00217,"LA CHAPELLE M. - PLACE","",49.02306,3.63416,,,0,,,
02:00218,02:00218,"CONDE EN B. - LES JONQUILLES","",49.00547,3.55408,,,0,,,
02:00221,02:00221,"CELLES LES C. - FACE ABRI","",49.01174,3.57093,,,0,,,
02:00222,02:00222,"MONTHUREL - ABRI","",49.02236,3.54661,,,0,,,
02:00223,02:00223,"CONNIGIS - PLACE","",49.03201,3.53145,,,0,,,
02:00226,02:00226,"CREZANCY - PAROY","",49.0497,3.5199,,,0,,,
02:00228,02:00228,"MEZY MOULINS - MOULINS","",49.05932,3.5211,,,0,,,
02:00229,02:00229,"MEZY MOULINS - X RUE MOULINS/GARE","",49.06641,3.50532,,,0,,,
02:00231,02:00231,"FOSSOY - DEVANT ECOLE","",49.04897,3.48288,,,0,,,
02:00232,02:00232,"FOSSOY - RUE HERBEMMERY","",49.04206,3.47342,,,0,,,
02:00233,02:00233,"FOSSOY - LA BADELLE","",49.05488,3.48596,,,0,,,
02:00234,02:00234,"FOSSOY - HAUT RUE DU MOUL.","",49.04956,3.48299,,,0,,,
02:00236,02:00236,"BLESMES - ABRI","",49.03964,3.44843,,,0,,,
02:00237,02:00237,"CHIERRY - FACE ABRI","",49.03936,3.43028,,,0,,,
02:00239,02:00239,"CONDE EN B. - EGLISE","",49.00469,3.56098,,,0,,,
02:00241,02:00241,"CONDE EN B. - COLLEGE","",49.00541,3.55229,,,0,,,
02:00242,02:00242,"ST EUGENE - PLACE ECOLE","",49.0227,3.53118,,,0,,,
02:00243,02:00243,"ST EUGENE - GARE","",49.02391,3.53048,,,0,,,
02:00244,02:00244,"CREZANCY - LYCEE AGRICOLE","",49.04901,3.50972,,,0,,,
02:00245,02:00245,"REUILLY S. - ABRI","",49.0579,3.55699,,,0,,,
02:00246,02:00246,"REUILLY S. - SAUVIGNY","",49.05453,3.57596,,,0,,,
02:00250,02:00250,"ETAMPES S/ M. - ABRI MAIRIE","",49.03388,3.41966,,,0,,,
02:00251,02:00251,"ETAMPES S/ M. - BAS 34 P. SEMARD","",49.03662,3.41434,,,0,,,
02:00252,02:00252,"CHIERRY - ABRI","",49.03941,3.43022,,,0,,,
02:00253,02:00253,"CONNIGIS - ROUTE DE CONNIGIS","",49.03141,3.52545,,,0,,,
02:00254,02:00254,"CONNIGIS - LAUNAY","",49.04438,3.52721,,,0,,,
02:00256,02:00256,"CONDE EN B. - ECOLE PRIMAIRE","",49.00452,3.55608,,,0,,,
02:00258,02:00258,"MERCIN ET V. - FACE 4 AV COMPIEGN","",49.38187,3.28508,,,0,,,
02:00260,02:00260,"AMBLENY - ROUTE D'AMBLENY","",49.39095,3.20003,,,0,,,
02:00261,02:00261,"AMBLENY - LE SOULIER","",49.38202,3.20102,,,0,,,
02:00262,02:00262,"AMBLENY - ARRET POSTE","",49.38037,3.18331,,,0,,,
02:00263,02:00263,"ST BANDRY - PLACE DE L'EGLISE","",49.37127,3.16989,,,0,,,
02:00264,02:00264,"ST BANDRY - COURTANSON","",49.36649,3.17468,,,0,,,
02:00265,02:00265,"LAVERSINE - LAVERSINE","",49.35037,3.17111,,,0,,,
02:00268,02:00268,"COEUVRES ET V. - FERME LE MURGER","",49.34215,3.13931,,,0,,,
02:00270,02:00270,"MORTEFONTAINE-X RTE VIVIERES/TAIL","",49.3306,3.07786,,,0,,,
02:00271,02:00271,"VIVIERES - FERME DE L'EPINE","",49.31667,3.10078,,,0,,,
02:00272,02:00272,"SOUCY - RUE DE L'EGLISE","",49.31106,3.12574,,,0,,,
02:00273,02:00273,"VIVIERES - X CIMETIERE","",49.29925,3.10616,,,0,,,
02:00274,02:00274,"PUISEUX EN R. - ABRI","",49.29681,3.12884,,,0,,,
02:00275,02:00275,"VILLERS C. - SNCF","",49.25047,3.09333,,,0,,,
02:00278,02:00278,"VILLERS C. - ROUTE DE VIVIERES","",49.25951,3.09777,,,0,,,
02:00279,02:00279,"VILLERS C. - GRAND BOSQUET","",49.25477,3.09286,,,0,,,
02:00280,02:00280,"VILLERS C. - LE PONT","",49.25298,3.09765,,,0,,,
02:00281,02:00281,"VILLERS C. - MEDIATHEQUE","",49.25002,3.08656,,,0,,,
02:00289,02:00289,"ST PIERRE A. - VERTES FEUILLES","",49.30182,3.21563,,,0,,,
02:00293,02:00293,"DAMPLEUX - PLACE ABRI","",49.24413,3.15223,,,0,,,
02:00295,02:00295,"FAVEROLLES - VOUTY ABRI PLACE","",49.23167,3.17775,,,0,,,
02:00296,02:00296,"LOUATRE - LOUATRE","",49.25777,3.2486,,,0,,,
02:00298,02:00298,"LOUATRE - VIOLAINE","",49.2631,3.23878,,,0,,,
02:00302,02:00302,"MISSY AUX B. - ABRI PLACE","",49.33636,3.25036,,,0,,,
02:00303,02:00303,"CHAUDUN - CRAVANCON X","",49.32448,3.24989,,,0,,,
02:00304,02:00304,"DOMMIERS - ABRI MAIRIE ECOLE","",49.32862,3.21274,,,0,,,
02:00305,02:00305,"ST PIERRE A. - FERME","",49.32264,3.18456,,,0,,,
02:00306,02:00306,"CUTRY - CROISEMENT","",49.34339,3.18519,,,0,,,
02:00307,02:00307,"CUTRY - FERME SAINT AMAND","",49.35387,3.23723,,,0,,,
02:00308,02:00308,"SACONIN ET B. - CAFE EPICERIE","",49.35563,3.24711,,,0,,,
02:00314,02:00314,"LA FERE - CARREFOUR DE LAON","",49.66008,3.38193,,,0,,,
02:00315,02:00315,"LA FERE - PONT DE L'OISE","",49.65996,3.37195,,,0,,,
02:00316,02:00316,"LA FERE - GARE SNCF","",49.65816,3.37005,,,0,,,
02:00317,02:00317,"LA FERE - PL DE L'ESPLANADE","",49.66224,3.36722,,,0,,,
02:00318,02:00318,"LA FERE - COLLEGE MARIE DE LUXEMB","",49.66421,3.36309,,,0,,,
02:00348,02:00348,"ST QUENTIN - GARE ROUTIERE","",49.84094,3.29832,,,0,,,
02:00349,02:00349,"ST QUENTIN - RUE RAOUL HUGET","",49.83334,3.31844,,,0,,,
02:00351,02:00351,"NEUVILLE ST A. - RTE DE ST QUENTI","",49.82545,3.3265,,,0,,,
02:00352,02:00352,"ITANCOURT - ARRET","",49.8066,3.34342,,,0,,,
02:00353,02:00353,"MEZIERES S/ O. - FACE ABRI","",49.78204,3.39862,,,0,,,
02:00354,02:00354,"SERY LES M. - ARRET","",49.77373,3.41895,,,0,,,
02:00355,02:00355,"RIBEMONT - CITE ECOLE","",49.80222,3.46998,,,0,,,
02:00356,02:00356,"MONT D O. - ABRI","",49.84253,3.50053,,,0,,,
02:00357,02:00357,"ORIGNY STE B. - 73 RUE PASTEUR","",49.84,3.48775,,,0,,,
02:00358,02:00358,"NEUVILLETTE - ARRET","",49.8536,3.48267,,,0,,,
02:00359,02:00359,"BERNOT - ABRI","",49.86847,3.49832,,,0,,,
02:00360,02:00360,"HAUTEVILLE - CROISEMENT D66","",49.87601,3.52044,,,0,,,
02:00361,02:00361,"MACQUIGNY - ARRET","",49.88447,3.55231,,,0,,,
02:00362,02:00362,"NOYALES - GARE","",49.89798,3.56086,,,0,,,
02:00363,02:00363,"PROIX - ARRET","",49.90209,3.56491,,,0,,,
02:00366,02:00366,"VADENCOURT - ABRI EGLISE","",49.92853,3.57767,,,0,,,
02:00367,02:00367,"GUISE - PLACE D'ARMES","",49.8981,3.62807,,,0,,,
02:00368,02:00368,"HOMBLIERES - ABRI D.68","",49.84669,3.36893,,,0,,,
02:00369,02:00369,"HOMBLIERES - PARKING RN 29","",49.84653,3.36719,,,0,,,
02:00372,02:00372,"THENELLES - RN 30","",49.83913,3.47755,,,0,,,
02:00373,02:00373,"THENELLES - CALVAIRE","",49.83339,3.47054,,,0,,,
02:00376,02:00376,"GUISE - ECOLE DU CENTRE","",49.89813,3.62812,,,0,,,
02:00377,02:00377,"GUISE - JEANNE D'ARC","",49.90242,3.62605,,,0,,,
02:00378,02:00378,"GUISE - LYCEE FRANCOISE DOLTO","",49.90415,3.6384,,,0,,,
02:00379,02:00379,"GUISE - COLL. CAMILLE DESMOULINS","",49.9038,3.63514,,,0,,,
02:00381,02:00381,"GUISE - PASSAGE A NIVEAU","",49.90318,3.61962,,,0,,,
02:00383,02:00383,"ORIGNY STE B. - X ST GERMAIN","",49.83621,3.49595,,,0,,,
02:00388,02:00388,"ST QUENTIN - BLD V. HUGO","",49.8418,3.28471,,,0,,,
02:00389,02:00389,"ST QUENTIN - LY. HENRI MARTIN","",49.8504,3.28285,,,0,,,
02:00390,02:00390,"ST QUENTIN - LYCEE TECHNIQUE","",49.86028,3.29467,,,0,,,
02:00391,02:00391,"ST QUENTIN - C.E.T BATIMENT","",49.86295,3.30798,,,0,,,
02:00392,02:00392,"ST QUENTIN - LY. J. FILLES","",49.85259,3.29937,,,0,,,
02:00393,02:00393,"GUISE - PLACE LESUR","",49.89853,3.62782,,,0,,,
02:00396,02:00396,"ST QUENTIN - LY. P DE LA RAMEE","",49.85164,3.30135,,,0,,,
02:00397,02:00397,"ST QUENTIN - RUE DES ETATS G.","",49.85095,3.28745,,,0,,,
02:00398,02:00398,"ST QUENTIN - LYCEE COLARD NOEL","",49.86291,3.30809,,,0,,,
02:00399,02:00399,"ST QUENTIN - MULHOUSE","",49.85133,3.2982,,,0,,,
02:00401,02:00401,"RENANSART - ABRI FACE MAIRIE","",49.73487,3.46297,,,0,,,
02:00402,02:00402,"SURFONTAINE - EGLISE","",49.75059,3.46555,,,0,,,
02:00403,02:00403,"HAUTEVILLE - PLACE ECOLE","",49.87751,3.52125,,,0,,,
02:00404,02:00404,"NOYALES - CENTRE","",49.8985,3.55477,,,0,,,
02:00405,02:00405,"VADENCOURT - CALVAIRE","",49.92855,3.57129,,,0,,,
02:00406,02:00406,"LESQUIELLES S. - PLACE","",49.93243,3.62162,,,0,,,
02:00408,02:00408,"THENELLES -FACE ABRI EGLISE","",49.83224,3.46974,,,0,,,
02:00409,02:00409,"REGNY - ABRI","",49.82928,3.42882,,,0,,,
02:00411,02:00411,"ST QUENTIN - RUE H.DUNANT","",49.8545,3.30495,,,0,,,
02:00412,02:00412,"PIERREPONT EN L - ABRI","",49.65418,3.79258,,,0,,,
02:00413,02:00413,"GRANDLUP ET F. - PLACE","",49.65753,3.73792,,,0,,,
02:00418,02:00418,"CHAMBRY - ARRET","",49.59065,3.65424,,,0,,,
02:00420,02:00420,"ST QUENTIN - L.E.P. C.C.I.A","",49.85097,3.30861,,,0,,,
02:00426,02:00426,"NEUVILLE ST A. - MAIRIE ECOLE","",49.8256,3.33191,,,0,,,
02:00427,02:00427,"ST QUENTIN - RUE DE GUISE","",49.84092,3.32075,,,0,,,
02:00428,02:00428,"ST QUENTIN - BD HENRI MARTIN","",49.85037,3.2828,,,0,,,
02:00429,02:00429,"SERY LES M. - ABRI","",49.7748,3.41769,,,0,,,
02:00430,02:00430,"MEZIERES S/ O. - ABRI","",49.78197,3.39857,,,0,,,
02:00437,02:00437,"ST QUENTIN - 112 BD GAMBETTA","",49.85025,3.29539,,,0,,,
02:00438,02:00438,"RIBEMONT - LUCY ABRI","",49.80851,3.47636,,,0,,,
02:00440,02:00440,"MONT D O. - FACE ABRI","",49.84245,3.50049,,,0,,,
02:00442,02:00442,"MORTIERS - CROISEMENT","",49.69194,3.67557,,,0,,,
02:00444,02:00444,"THENELLES - PLACE ABRI","",49.83009,3.46777,,,0,,,
02:00447,02:00447,"MARCY - ABRI","",49.85032,3.40417,,,0,,,
02:00449,02:00449,"HOMBLIERES - FACE PARKING RN29","",49.84644,3.36722,,,0,,,
02:00450,02:00450,"BARENTON BUGNY - CENTRE","",49.63456,3.65122,,,0,,,
02:00451,02:00451,"MESNIL ST L. - POTEAU RTA","",49.82702,3.35194,,,0,,,
02:00452,02:00452,"BARENTON BUGNY - GARE","",49.63084,3.65554,,,0,,,
02:00453,02:00453,"LAON - PONT DE VAUX TUL","",49.57082,3.63213,,,0,,,
02:00454,02:00454,"MONTCORNET - PLACE DE LA GARE","",49.69762,4.01621,,,0,,,
02:00455,02:00455,"CHAOURSE - PLACE","",49.70427,3.9986,,,0,,,
02:00456,02:00456,"CHAOURSE - MOULIN DE JEUNE","",49.70924,3.98713,,,0,,,
02:00457,02:00457,"AGNICOURT ET S. - SECHELLES ABRI","",49.71324,3.97759,,,0,,,
02:00461,02:00461,"TAVAUX ET P. - ABRI 1 R.DE MALAIS","",49.7299,3.90952,,,0,,,
02:00462,02:00462,"TAVAUX ET P. - ABRI PLACE","",49.73029,3.90248,,,0,,,
02:00463,02:00463,"TAVAUX ET P. - FACE ABRI EGL PONT","",49.72422,3.90782,,,0,,,
02:00464,02:00464,"TAVAUX ET P. - X DE L'ESPERANCE","",49.7061,3.91179,,,0,,,
02:00466,02:00466,"EBOULEAU - ARRET","",49.67313,3.87303,,,0,,,
02:00469,02:00469,"CUIRIEUX - ABRI","",49.68173,3.81499,,,0,,,
02:00472,02:00472,"MONCEAU LE W. - ABRI","",49.61919,3.71448,,,0,,,
02:00477,02:00477,"VADENCOURT - BOHERIES ABRI","",49.91593,3.57319,,,0,,,
02:00480,02:00480,"AUDIGNY - LA DESOLATION","",49.87441,3.63029,,,0,,,
02:00485,02:00485,"LAON - INSTITUTION  LA PROVIDENCE","",49.56298,3.62173,,,0,,,
02:00487,02:00487,"AULNOIS /S L. - ENTREPOT","",49.60952,3.61405,,,0,,,
02:00488,02:00488,"AULNOIS /S L. - PLACE","",49.61391,3.60141,,,0,,,
02:00492,02:00492,"AULNOIS /S L. - ABRI ECOLE DU CEN","",49.61196,3.60845,,,0,,,
02:00493,02:00493,"CHERY LES P. - PL RUE DU CHATEAU","",49.6557,3.60446,,,0,,,
02:00494,02:00494,"POUILLY S/ S. - PLACE","",49.68247,3.5892,,,0,,,
02:00495,02:00495,"POUILLY S/ S. - USINE","",49.68427,3.5986,,,0,,,
02:00497,02:00497,"CRECY S/ S. - ABRI","",49.69506,3.62338,,,0,,,
02:00500,02:00500,"PARGNY LES B. - 1 RUE DE CRECY","",49.72593,3.62236,,,0,,,
02:00501,02:00501,"BOIS LES P. - ABRI RUE M. CARLIER","",49.73099,3.64848,,,0,,,
02:00502,02:00502,"MONTIGNY S/ C. - ABRI RUE CUGNOT","",49.71578,3.58429,,,0,,,
02:00505,02:00505,"LA FERTE C. - ABRI RUE DE GUISE","",49.74056,3.55436,,,0,,,
02:00506,02:00506,"CHEVRESIS M. - EGLISE","",49.75453,3.57211,,,0,,,
02:00508,02:00508,"MONCEAU LE F. - FAUCOUZY ABRI","",49.79174,3.6362,,,0,,,
02:00509,02:00509,"LANDIFAY ET B. - ABRI RUE EGLISE","",49.81683,3.60548,,,0,,,
02:00511,02:00511,"SAINS R. - COLLEGE","",49.82617,3.70541,,,0,,,
02:00512,02:00512,"SAINS R. - GENDARMERIE","",49.82373,3.70263,,,0,,,
02:00514,02:00514,"PUISIEUX ET C. - ABRI","",49.85317,3.67785,,,0,,,
02:00515,02:00515,"AUDIGNY - ABRI","",49.8696,3.64578,,,0,,,
02:00516,02:00516,"BARENTON CEL - ARRET SCOLAIRE","",49.64369,3.65501,,,0,,,
02:00517,02:00517,"BARENTON BUGNY - ARRET EGLISE","",49.63496,3.65069,,,0,,,
02:00518,02:00518,"TUPIGNY - ABRI","",49.95625,3.6085,,,0,,,
02:00519,02:00519,"GRAND VERLY - ABRI","",49.93806,3.58323,,,0,,,
02:00523,02:00523,"MENNEVRET - RTE DE WASSIGNY","",49.98524,3.55563,,,0,,,
02:00525,02:00525,"ETREUX - ABRI S.POLYVA.","",49.98986,3.65483,,,0,,,
02:00526,02:00526,"LA VALLEE M. - X  D 77 ET D 68","",50.0238,3.56525,,,0,,,
02:00527,02:00527,"MOLAIN - ABRI EGLISE","",50.03188,3.53545,,,0,,,
02:00534,02:00534,"LANISCOURT - ABRI EGLISE","",49.54878,3.54211,,,0,,,
02:00536,02:00536,"CERNY LES B. - ABRI","",49.57808,3.5481,,,0,,,
02:00537,02:00537,"BUCY LES C. - MAIRIE","",49.58259,3.5163,,,0,,,
02:00539,02:00539,"CESSIERES - ABRI ECOLE","",49.5583,3.49656,,,0,,,
02:00540,02:00540,"FAUCOUCOURT - MAIRIE","",49.53481,3.46479,,,0,,,
02:00541,02:00541,"SUZY - ABRI","",49.55045,3.46756,,,0,,,
02:00542,02:00542,"PREMONTRE - RUE DES CHASSEURS","",49.53883,3.41553,,,0,,,
02:00543,02:00543,"PREMONTRE - ABRI SQUARE MAIRIE","",49.54174,3.41166,,,0,,,
02:00546,02:00546,"ST NICOLAS A. - X RTE NICOLAS","",49.57579,3.44104,,,0,,,
02:00547,02:00547,"ST GOBAIN - LA CHESNOYE","",49.59301,3.37722,,,0,,,
02:00548,02:00548,"ST GOBAIN - HOSPITAL","",49.5995,3.4181,,,0,,,
02:00549,02:00549,"ST GOBAIN - CINEMA","",49.59727,3.37758,,,0,,,
02:00550,02:00550,"ST GOBAIN - EC. MATERNELLE","",49.59635,3.37941,,,0,,,
02:00551,02:00551,"ST GOBAIN - LE PIED DU MONT","",49.60016,3.36892,,,0,,,
02:00552,02:00552,"BARISIS AUX B. - PLACE","",49.57842,3.32783,,,0,,,
02:00553,02:00553,"AMIGNY ROUY - ABRI","",49.60823,3.30512,,,0,,,
02:00554,02:00554,"SINCENY - ABRI MAIRIE","",49.59827,3.25264,,,0,,,
02:00555,02:00555,"SINCENY - ABRI EGLISE","",49.59625,3.24527,,,0,,,
02:00556,02:00556,"SINCENY - ABRI RUE DUPLOYE","",49.59379,3.2348,,,0,,,
02:00559,02:00559,"CHAUNY - GARE SNCF","",49.61157,3.22385,,,0,,,
02:00560,02:00560,"CHAUNY - PLACE BOUZIER","",49.61692,3.21402,,,0,,,
02:00567,02:00567,"LAON - FERME D AVIN","",49.5686,3.576,,,0,,,
02:00569,02:00569,"AMIGNY ROUY - ABRI CALVAIRE","",49.61227,3.30534,,,0,,,
02:00570,02:00570,"FAUCOUCOURT - FERME MANNEUX","",49.54179,3.49223,,,0,,,
02:00575,02:00575,"LAON - LA NEUVILLE CFA","",49.57048,3.59553,,,0,,,
02:00576,02:00576,"LAON - CPLEX SOC CHARRON","",49.54474,3.58414,,,0,,,
02:00579,02:00579,"TRUCY - MAIRIE","",49.4712,3.61051,,,0,,,
02:00581,02:00581,"COLLIGIS C. - COLLIGIS PLACE ABRI","",49.47553,3.64021,,,0,,,
02:00584,02:00584,"VORGES - 12 RUE ERNEST GANAULT","",49.51884,3.65419,,,0,,,
02:00587,02:00587,"NOUVION LE V. - NOUVION LE VINEUX","",49.50276,3.61167,,,0,,,
02:00588,02:00588,"LAVAL EN L. - LAVAL","",49.50149,3.59574,,,0,,,
02:00589,02:00589,"ETOUVELLES - MAIRIE","",49.5217,3.58149,,,0,,,
02:00590,02:00590,"CHIVY LES E. - CHIVY","",49.52636,3.58448,,,0,,,
02:00592,02:00592,"BRUYERES ET M. - MONTBERAULT","",49.4998,3.67148,,,0,,,
02:00595,02:00595,"BRUYERES ET M. - POTEAU RTA RESTO","",49.52614,3.66218,,,0,,,
02:00598,02:00598,"GUISE - MADAGASCAR","",49.90724,3.6281,,,0,,,
02:00602,02:00602,"AISONVILLE ET B - MONUMENT","",49.93433,3.51584,,,0,,,
02:00604,02:00604,"BOHAIN EN V. - ARRET RT ST QUENT","",49.98457,3.45485,,,0,,,
02:00605,02:00605,"BOHAIN EN V. - COLLEGE H. MATISSE","",49.98526,3.4567,,,0,,,
02:00606,02:00606,"BOHAIN EN V. - ECOLE BERTHELOT","",49.9881,3.45517,,,0,,,
02:00607,02:00607,"BOHAIN EN V. - EC.CHENE BRULE","",49.98911,3.45681,,,0,,,
02:00608,02:00608,"BOHAIN EN V. - MAT ALAVOINE","",49.98871,3.45014,,,0,,,
02:00609,02:00609,"BOHAIN EN V. - 24 RUE FAGARD","",49.98749,3.45364,,,0,,,
02:00610,02:00610,"BOHAIN EN V. - ABRI GARE SNCF","",49.9881,3.44327,,,0,,,
02:00611,02:00611,"BECQUIGNY - X ECOLE","",50.01578,3.4696,,,0,,,
02:00612,02:00612,"BECQUIGNY - BECQUIGNETTE","",50.01865,3.4563,,,0,,,
02:00614,02:00614,"CHAUNY - HOSPITAL","",49.62578,3.23411,,,0,,,
02:00618,02:00618,"LA FERE - REPUBLIQUE EC.","",49.66102,3.36724,,,0,,,
02:00624,02:00624,"TRAVECY - ABRI","",49.68733,3.35862,,,0,,,
02:00627,02:00627,"COURBES - ABRI MAIRIE","",49.6848,3.45202,,,0,,,
02:00628,02:00628,"MAYOT - ABRI","",49.7036,3.38461,,,0,,,
02:00629,02:00629,"ACHERY - ABRI","",49.69222,3.39019,,,0,,,
02:00654,02:00654,"CERIZY - LA GUINGUETTE","",49.75906,3.33714,,,0,,,
02:00656,02:00656,"MOY DE L. - FACE ABRI  POSTE","",49.75016,3.36498,,,0,,,
02:00657,02:00657,"BEAUTOR - CARREFOUR","",49.66274,3.34872,,,0,,,
02:00660,02:00660,"HINACOURT - FACE ABRI","",49.74522,3.29564,,,0,,,
02:00662,02:00662,"CERIZY - PLACE","",49.76069,3.32929,,,0,,,
02:00663,02:00663,"MOY DE L. - ABRI POSTE","",49.75021,3.36488,,,0,,,
02:00668,02:00668,"BRANCOURT EN L. - EGLISE ABRI","",49.51547,3.41834,,,0,,,
02:00669,02:00669,"ANIZY LE G. - LA CITE","",49.50468,3.4435,,,0,,,
02:00670,02:00670,"ANIZY LE G. - ABRI COTE EGLISE","",49.50479,3.45248,,,0,,,
02:00671,02:00671,"ANIZY LE G. - GARE SNCF","",49.49634,3.44837,,,0,,,
02:00672,02:00672,"PINON - FACE ABRI PL. CH. DE GAUL","",49.48799,3.44759,,,0,,,
02:00675,02:00675,"LAFFAUX - MOULIN","",49.44975,3.4382,,,0,,,
02:00677,02:00677,"LAFFAUX - ABRI VILLAGE","",49.44891,3.42564,,,0,,,
02:00678,02:00678,"MARGIVAL - PLACE","",49.43592,3.40311,,,0,,,
02:00679,02:00679,"MARGIVAL - LE PONT ROUGE","",49.42487,3.40861,,,0,,,
02:00680,02:00680,"CROUY - PLACE DE L EGLISE ABRI","",49.40302,3.36006,,,0,,,
02:00681,02:00681,"CROUY - FRANCIA HOVAL","",49.39858,3.35202,,,0,,,
02:00685,02:00685,"LA VALLEE A. - HOSPICE","",49.85785,3.78931,,,0,,,
02:00686,02:00686,"LA VALLEE A. - ABRI PLACE HLM","",49.8543,3.78145,,,0,,,
02:00693,02:00693,"SAINS R. - EGLISE","",49.82542,3.71479,,,0,,,
02:00695,02:00695,"VERVINS - X RN","",49.83292,3.9033,,,0,,,
02:00700,02:00700,"PLOMION - CENTRE","",49.8082,4.01665,,,0,,,
02:00701,02:00701,"PLOMION - LA NIGAUDIERE","",49.83064,4.03497,,,0,,,
02:00702,02:00702,"LA HERIE - CROISEMENT","",49.88795,4.05248,,,0,,,
02:00703,02:00703,"LA HERIE - VILLAGE","",49.88343,4.04701,,,0,,,
02:00704,02:00704,"LANDOUZY LA V. - LA RUE HEUREUSE","",49.84169,4.03548,,,0,,,
02:00705,02:00705,"LANDOUZY LA V. - LA VILLE","",49.86194,4.04803,,,0,,,
02:00706,02:00706,"ORIGNY EN T. - FACE ABRI MAIRIE","",49.89527,4.01771,,,0,,,
02:00707,02:00707,"BUIRE - PONT","",49.9091,4.06811,,,0,,,
02:00708,02:00708,"HARLY - CENTRE LECLERC ABRI VILLE","",49.84178,3.32312,,,0,,,
02:00710,02:00710,"WIMY - X RN43/RD 288/75","",49.96007,4.01285,,,0,,,
02:00711,02:00711,"WIMY - RN43 RUE GUISE","",49.96372,3.98648,,,0,,,
02:00712,02:00712,"CLAIRFONTAINE - R. PARIS ANC.GARE","",49.96574,3.97081,,,0,,,
02:00713,02:00713,"LA CAPELLE - COLLEGE","",49.97481,3.92094,,,0,,,
02:00714,02:00714,"LA CAPELLE - PL. DE LA DEMI L.","",49.97622,3.91817,,,0,,,
02:00715,02:00715,"BUIRONFOSSE - ABRI RN 29","",49.96413,3.83704,,,0,,,
02:00719,02:00719,"ESQUEHERIES - LE GRAND WEZ ABRI","",49.9822,3.77898,,,0,,,
02:00720,02:00720,"ESQUEHERIES - PLACE","",49.98335,3.74762,,,0,,,
02:00721,02:00721,"ESQUEHERIES - CAFE","",49.98366,3.7472,,,0,,,
02:00723,02:00723,"ROCQUIGNY - ROCQUIGNY ABRI","",50.02383,3.98144,,,0,,,
02:00724,02:00724,"LERZY - ABRI","",49.94416,3.88174,,,0,,,
02:00726,02:00726,"BERGUES S/ S. - RUE DE BOUE","",50.03286,3.7057,,,0,,,
02:00727,02:00727,"BOUE - FACE MAISON DE LA PRESSE","",50.0114,3.69615,,,0,,,
02:00729,02:00729,"BOUE - ABRI USINE","",50.00668,3.693,,,0,,,
02:00731,02:00731,"ETREUX - FACE ABRI C. DE GAULLE","",49.99691,3.66392,,,0,,,
02:00732,02:00732,"ETREUX - FACE COOP AGRI.","",49.99192,3.65416,,,0,,,
02:00734,02:00734,"VENEROLLES - ABRI","",49.98432,3.63862,,,0,,,
02:00735,02:00735,"HANNAPES - ABRI X D27/D66","",49.97338,3.62506,,,0,,,
02:00737,02:00737,"LA VALLEE M. - MAIRIE","",50.02081,3.55854,,,0,,,
02:00739,02:00739,"BECQUIGNY - X RTE V. ANDIGNY","",50.01607,3.46953,,,0,,,
02:00741,02:00741,"BECQUIGNY - ABRI MAIRIE","",50.01576,3.46963,,,0,,,
02:00742,02:00742,"LE NOUVION E. - N°46 RUE CROIX","",50.01833,3.80009,,,0,,,
02:00743,02:00743,"LE NOUVION E. - ABRI PLACE","",50.01628,3.78477,,,0,,,
02:00746,02:00746,"TUPIGNY - CAFE","",49.95736,3.60666,,,0,,,
02:00747,02:00747,"MENNEVRET - ABRI EGLISE","",49.98383,3.55531,,,0,,,
02:00749,02:00749,"MONTIGNY EN A. - VILLAGE ABRI","",49.90533,3.47482,,,0,,,
02:00751,02:00751,"FIEULAINE - GRANDE RUE","",49.89929,3.44951,,,0,,,
02:00758,02:00758,"ST BRICE C. - ST BRICE VERRERIE","",49.26354,3.99598,,,0,,,
02:00759,02:00759,"CHAMPIGNY - CHAMPIGNY","",49.26517,3.97504,,,0,,,
02:00760,02:00760,"CHAMPIGNY - CITE LOMBARD","",49.26844,3.9728,,,0,,,
02:00761,02:00761,"CHAMPIGNY - HAMEAU DE MACO","",49.28278,3.9441,,,0,,,
02:00762,02:00762,"CHALONS S/ V. - CHALONS SUR VESLE","",49.28976,3.91788,,,0,,,
02:00763,02:00763,"CHENAY - CHENAY","",49.29676,3.92604,,,0,,,
02:00764,02:00764,"MERFY - MERFY","",49.29589,3.94789,,,0,,,
02:00765,02:00765,"ST THIERRY - EGLISE","",49.30451,3.9648,,,0,,,
02:00766,02:00766,"THIL - THIL","",49.31507,3.96423,,,0,,,
02:00767,02:00767,"POUILLON - POUILLON","",49.31438,3.94959,,,0,,,
02:00768,02:00768,"VILLERS F. - VILLERS FRANQUEUX","",49.32768,3.94282,,,0,,,
02:00769,02:00769,"HERMONVILLE - PLACE TRUCHON","",49.33524,3.90963,,,0,,,
02:00770,02:00770,"CAUROY LES H. - CAUROY LES HERM.","",49.34895,3.92289,,,0,,,
02:00772,02:00772,"BERRY AU B. - ECOLE ABRI","",49.40357,3.90091,,,0,,,
02:00777,02:00777,"BEAURIEUX - PL. FRANCOIS 1ER","",49.3939,3.73971,,,0,,,
02:00778,02:00778,"CRAONNE - CRAONNE","",49.43892,3.78597,,,0,,,
02:00783,02:00783,"FESTIEUX - PL. DE LA S.FETES","",49.52361,3.75592,,,0,,,
02:00786,02:00786,"CHERET - ABRI MAIRIE","",49.51503,3.68332,,,0,,,
02:00787,02:00787,"BRUYERES ET M. -  ABRI","",49.52583,3.66256,,,0,,,
02:00789,02:00789,"LAON - ARDON PLACE","",49.54885,3.62955,,,0,,,
02:00797,02:00797,"FERE EN T. - FERE EN TARDENOIS","",49.20202,3.51371,,,0,,,
02:00803,02:00803,"ORIGNY STE B. - ABRI PLACE","",49.83994,3.488,,,0,,,
02:00806,02:00806,"VADENCOURT - LONGCH. MOULIN","",49.91652,3.56465,,,0,,,
02:00808,02:00808,"VADENCOURT - LONGCHAMPS ABRI","",49.91649,3.56464,,,0,,,
02:00809,02:00809,"LESQUIELLES S. - ST GERMAIN ARRET","",49.92387,3.62456,,,0,,,
02:00818,02:00818,"CHARTEVES - FACE ABRI","",49.07516,3.50358,,,0,,,
02:00823,02:00823,"GLAND - VILLAGE","",49.04763,3.46278,,,0,,,
02:00824,02:00824,"GLAND - FRAICHE FONTAINE","",49.04622,3.4512,,,0,,,
02:00825,02:00825,"BRASLES - MAIRIE","",49.04788,3.42663,,,0,,,
02:00827,02:00827,"TRELOU S/ M. - ABRI","",49.07582,3.60851,,,0,,,
02:00830,02:00830,"BARZY S/ M. - ABRI","",49.08685,3.55159,,,0,,,
02:00831,02:00831,"JAULGONNE - ABRI PLACE DU PUITS","",49.08824,3.53576,,,0,,,
02:00833,02:00833,"BRASLES - CIMETIERE","",49.04731,3.43265,,,0,,,
02:00834,02:00834,"BRASLES - CROIX VITARD","",49.0453,3.4202,,,0,,,
02:00835,02:00835,"BRASLES - RUE DU PONT","",49.04414,3.41408,,,0,,,
02:00836,02:00836,"CHATEAU T. - POTERNE","",49.04443,3.40354,,,0,,,
02:00837,02:00837,"CHATEAU T. - PLACE LECLERC","",49.04211,3.40358,,,0,,,
02:00838,02:00838,"CHATEAU T. - PLACE PAUL DOUMER","",49.04059,3.40469,,,0,,,
02:00840,02:00840,"MONT ST P. - ECLUSE","",49.06944,3.48233,,,0,,,
02:00841,02:00841,"MONT ST P. - CENTRE","",49.07445,3.48848,,,0,,,
02:00843,02:00843,"CIRY SALSOGNE - ECOLES","",49.3621,3.4649,,,0,,,
02:00844,02:00844,"CHASSEMY - FACE ABRI PLACE ECOLE","",49.38104,3.50534,,,0,,,
02:00846,02:00846,"SERMOISE - EGLISE","",49.37387,3.45184,,,0,,,
02:00847,02:00847,"BILLY S/ A. - CROISEMENT","",49.3625,3.39089,,,0,,,
02:00848,02:00848,"AUGY - VILLAGE ABRI","",49.33826,3.51346,,,0,,,
02:00849,02:00849,"CIRY SALSOGNE - CROISEMENT","",49.37049,3.46563,,,0,,,
02:00855,02:00855,"BAZOCHES S/ V. - PLACE","",49.30666,3.61828,,,0,,,
02:00858,02:00858,"QUINCY /S L. - CRT D 15","",49.30746,3.55478,,,0,,,
02:00863,02:00863,"WATIGNY - PLACE ABRI","",49.90353,4.19444,,,0,,,
02:00864,02:00864,"ST MICHEL - LE PLANTON ABRI","",49.91937,4.13664,,,0,,,
02:00865,02:00865,"ST MICHEL - COQ HARDI ABRI","",49.91764,4.12817,,,0,,,
02:00866,02:00866,"ST MICHEL - ALOUETTE ABRI","",49.9148,4.1144,,,0,,,
02:00875,02:00875,"LA FERTE M. - MAIRIE","",49.17807,3.12516,,,0,,,
02:00876,02:00876,"PASSY EN V. - X D4 ET D11","",49.1621,3.1812,,,0,,,
02:00877,02:00877,"NEUILLY ST F. - FACE PLACE EGLISE","",49.17099,3.25942,,,0,,,
02:00883,02:00883,"CHAOURSE - ABRI RUE DES CHENES","",49.69893,3.99495,,,0,,,
02:00885,02:00885,"AGNICOURT ET S. - X RUE MORENZY","",49.72371,3.95833,,,0,,,
02:00886,02:00886,"ST PIERREMONT - ABRI","",49.72359,3.88051,,,0,,,
02:00888,02:00888,"BOSMONT S/ S. - PLACE","",49.73147,3.85823,,,0,,,
02:00890,02:00890,"MONTIGNY /S M. -FACE ABRI PL VERD","",49.74777,3.79123,,,0,,,
02:00894,02:00894,"CHATILLON LES S-ABRI 7 RUE EGLISE","",49.75977,3.68446,,,0,,,
02:00895,02:00895,"MONTIGNY S/ C. - FACE SALLE DES F","",49.71654,3.58557,,,0,,,
02:00898,02:00898,"PARPEVILLE - ABRI BAS HAUT","",49.78817,3.54297,,,0,,,
02:00899,02:00899,"PLEINE SELVE - RUE DES BATISSEURS","",49.79268,3.52989,,,0,,,
02:00900,02:00900,"PLEINE SELVE - ABRI GRAND COURT","",49.79091,3.52544,,,0,,,
02:00902,02:00902,"RIBEMONT - GARE","",49.79731,3.45531,,,0,,,
02:00903,02:00903,"ST QUENTIN - PLACE STALINGRAD","",49.83659,3.30608,,,0,,,
02:00907,02:00907,"MARLE - ANC. GENDARMERIE","",49.7387,3.76709,,,0,,,
02:00908,02:00908,"BERLANCOURT - FACE MAIRIE","",49.77871,3.75737,,,0,,,
02:00910,02:00910,"HOUSSET - HOUSSET","",49.79522,3.70834,,,0,,,
02:00913,02:00913,"STE PREUVE - FACE N°1 JARDINS","",49.61841,3.90802,,,0,,,
02:00914,02:00914,"SISSONNE - ABRI FOCH","",49.57015,3.9123,,,0,,,
02:00916,02:00916,"SISSONNE - ABRI RTE DE LAON","",49.57114,3.8824,,,0,,,
02:00917,02:00917,"MARCHAIS - ARRET RTA","",49.58365,3.81661,,,0,,,
02:00918,02:00918,"EPPES -ABRI","",49.55749,3.73718,,,0,,,
02:00919,02:00919,"SAMOUSSY - ABRI","",49.58534,3.73413,,,0,,,
02:00921,02:00921,"NIZY LE C. - 3 RTE DE DIZY LE GRO","",49.56861,4.05417,,,0,,,
02:00922,02:00922,"SISSONNE - 7 RUE DU MAR. TASSIGNY","",49.57284,3.89101,,,0,,,
02:00923,02:00923,"FERE EN T. - RUE M.NELATON","",49.20077,3.51338,,,0,,,
02:00924,02:00924,"FERE EN T. - 32 RUE A. BRIAND","",49.20117,3.51389,,,0,,,
02:00925,02:00925,"BEUVARDES - ABRI PLACE","",49.1394,3.48775,,,0,,,
02:00926,02:00926,"BEUVARDES - LES TILLEULS","",49.13458,3.4853,,,0,,,
02:00927,02:00927,"EPIEDS - FACE ABRI","",49.10548,3.44403,,,0,,,
02:00929,02:00929,"VERDILLY - AUX COUPETTES","",49.06714,3.41826,,,0,,,
02:00930,02:00930,"BRASLES - BRIQUETTERIE","",49.05601,3.42192,,,0,,,
02:00933,02:00933,"BEUVARDES - 5 RUE DE LA CROISETTE","",49.13929,3.48789,,,0,,,
02:00936,02:00936,"FERE EN T. - GARE","",49.20845,3.50428,,,0,,,
02:00937,02:00937,"SAPONAY - POTEAU RTA","",49.21523,3.48039,,,0,,,
02:00938,02:00938,"CRAMAILLE - POTEAU RTA","",49.22976,3.45623,,,0,,,
02:00944,02:00944,"SEPTMONTS - PLACE","",49.33464,3.35885,,,0,,,
02:00946,02:00946,"VERDILLY - PL. DE LA MAIRIE","",49.07246,3.4239,,,0,,,
02:00948,02:00948,"FERE EN T. - 25 RUE A. BRIAND","",49.201,3.51307,,,0,,,
02:00950,02:00950,"CHATEAU T. - HOT. CAMPANILE","",49.06094,3.39486,,,0,,,
02:00953,02:00953,"SOISSONS - RUE D'HERICOURT","",49.37905,3.31998,,,0,,,
02:00954,02:00954,"SOISSONS - BD JEANNE D'ARC","",49.37993,3.32124,,,0,,,
02:00955,02:00955,"SOISSONS - AVENUE DE PARIS","",49.37802,3.31618,,,0,,,
02:00956,02:00956,"DANIZY - PLACE MAIRIE","",49.66463,3.39134,,,0,,,
02:00957,02:00957,"BRISSAY C. - ABRI","",49.72104,3.37848,,,0,,,
02:00958,02:00958,"BRISSY H. - ABRI BRISSY","",49.74407,3.38251,,,0,,,
02:00959,02:00959,"BRISSY H. - ABRI HAMEGICOURT","",49.74641,3.3798,,,0,,,
02:00960,02:00960,"MOY DE L. - ABRI GARE","",49.75307,3.36247,,,0,,,
02:00961,02:00961,"ALAINCOURT - PLACE ABRI","",49.76554,3.37529,,,0,,,
02:00962,02:00962,"BERTHENICOURT - ABRI","",49.77249,3.38054,,,0,,,
02:00963,02:00963,"MEZIERES S/ O. - GARE","",49.77892,3.39017,,,0,,,
02:00964,02:00964,"ITANCOURT - ABRI","",49.80709,3.34318,,,0,,,
02:00968,02:00968,"CRAMAILLE - PLACE MAIRIE","",49.22991,3.45295,,,0,,,
02:00969,02:00969,"ARCY STE R. - PLACE ABRI","",49.25275,3.46374,,,0,,,
02:00978,02:00978,"VILLERS S/ F. - PLACE ABRI","",49.18288,3.53393,,,0,,,
02:00987,02:00987,"NIZY LE C. - ABRI","",49.56832,4.05492,,,0,,,
02:00989,02:00989,"LA MALMAISON - FACE ABRI EGLISE","",49.51537,3.97996,,,0,,,
02:00990,02:00990,"PROVISEUX ET P. - MAIRIE","",49.46492,4.00929,,,0,,,
02:00991,02:00991,"PROUVAIS - ABRI","",49.46335,3.97575,,,0,,,
02:00992,02:00992,"VILLENEUVE S/A - GARE SNCF","",49.43516,3.96181,,,0,,,
02:00994,02:00994,"EVERGNICOURT - MAIRIE ABRI","",49.44276,4.04143,,,0,,,
02:00995,02:00995,"NEUFCHATEL S/ A - MAIRIE","",49.43193,4.03432,,,0,,,
02:00997,02:00997,"BERTRICOURT - EGLISE","",49.39567,4.01019,,,0,,,
02:01004,02:01004,"BERLISE - ABRI","",49.66021,4.1067,,,0,,,
02:01011,02:01011,"BEAURIEUX - FACE 6 RUE DE GAULLE","",49.39019,3.73372,,,0,,,
02:01012,02:01012,"MAIZY - ABRI EGLISE","",49.37875,3.73104,,,0,,,
02:01013,02:01013,"REVILLON - ABRI CROISEMENT","",49.36542,3.70022,,,0,,,
02:01014,02:01014,"GLENNES - ARRET MAIRIE","",49.35594,3.71308,,,0,,,
02:01015,02:01015,"MERVAL - ABRI EGLISE","",49.35356,3.69629,,,0,,,
02:01016,02:01016,"SERVAL - ARRET RTA FERME","",49.35396,3.68777,,,0,,,
02:01017,02:01017,"VILLERS EN P. - CAFE","",49.37715,3.67591,,,0,,,
02:01019,02:01019,"BLANZY LES F. - X ARRET RTA","",49.33909,3.66783,,,0,,,
02:01030,02:01030,"COUCY LES E. - ABRI GARE","",49.55581,3.77415,,,0,,,
02:01041,02:01041,"VERVINS - PLACE SOHIER","",49.83531,3.90807,,,0,,,
02:01046,02:01046,"SAINS R. - PRESBYTERE","",49.82538,3.71459,,,0,,,
02:01047,02:01047,"CHEVENNES - MAIRIE","",49.81456,3.73215,,,0,,,
02:01052,02:01052,"ANY MARTIN R. - MARTIN RIEUX ABRI","",49.88019,4.23659,,,0,,,
02:01053,02:01053,"ANY MARTIN R. - ANY ABRI","",49.88111,4.22088,,,0,,,
02:01056,02:01056,"VARISCOURT - MAIRIE","",49.41682,3.98566,,,0,,,
02:01057,02:01057,"CONDE S/ S. - PLACE MAIRIE","",49.41974,3.95085,,,0,,,
02:01058,02:01058,"CONDE S/ S. - SUCRERIE","",49.42601,3.95925,,,0,,,
02:01061,02:01061,"MENNEVILLE - ABRI","",49.41929,4.00693,,,0,,,
02:01062,02:01062,"NEUFCHATEL S/ A - ARRET RTA","",49.43174,4.03409,,,0,,,
02:01065,02:01065,"PROUVAIS - PLACE EGLISE","",49.46337,3.97581,,,0,,,
02:01066,02:01066,"VILLENEUVE S/A - PLACE DU MARCHE","",49.43775,3.96547,,,0,,,
02:01087,02:01087,"VICHEL N. - NANTEUIL","",49.18754,3.31309,,,0,,,
02:01091,02:01091,"CHEZY EN O. - 1 RUE DU MONT","",49.12379,3.18151,,,0,,,
02:01096,02:01096,"VEUILLY LA P. - ABRI","",49.08463,3.21416,,,0,,,
02:01099,02:01099,"BELLEAU - MAIRIE","",49.08522,3.29089,,,0,,,
02:01100,02:01100,"BOURESCHES - BOURESCHES","",49.06249,3.30854,,,0,,,
02:01102,02:01102,"ST REMY B. - FACE ABRI PLACE","",49.24096,3.31003,,,0,,,
02:01103,02:01103,"LE PLESSIER H. - ABRI","",49.23852,3.34347,,,0,,,
02:01107,02:01107,"GRAND ROZOY - MAIRIE","",49.23424,3.38406,,,0,,,
02:01108,02:01108,"LA FERTE C. - CHEVRESIS LES D.","",49.72361,3.53929,,,0,,,
02:01110,02:01110,"SEPTVAUX - MAIRIE","",49.5695,3.37792,,,0,,,
02:01116,02:01116,"MOY DE L. - FACE ABRI GARE","",49.7531,3.36254,,,0,,,
02:01118,02:01118,"VAUDESSON - VAURAINS ABRI","",49.456,3.48444,,,0,,,
02:01121,02:01121,"BOUE - RUE DE LA NATION","",50.00658,3.69321,,,0,,,
02:01122,02:01122,"HANNAPES - X PLACE","",49.9726,3.62527,,,0,,,
02:01123,02:01123,"AISONVILLE ET B - BERNOVILLE ABRI","",49.93072,3.51364,,,0,,,
02:01128,02:01128,"PROVISEUX ET P. - FERME DU PLESNO","",49.48981,4.02388,,,0,,,
02:01129,02:01129,"NEUFCHATEL S/ A - BRIENNE D926","",49.42861,4.04385,,,0,,,
02:01130,02:01130,"CHIGNY - HAUT ABRI","",49.91774,3.76891,,,0,,,
02:01131,02:01131,"CHIGNY - BAS ABRI","",49.91359,3.77532,,,0,,,
02:01132,02:01132,"MARLY GOMONT - ABRI PLACE GOMONT","",49.89919,3.77469,,,0,,,
02:01133,02:01133,"PROISY - 1ER ARRET ABRI","",49.89805,3.73925,,,0,,,
02:01134,02:01134,"PROISY - 2EME ARRET","",49.89764,3.75002,,,0,,,
02:01136,02:01136,"WIEGE FATY - FATY ABRI","",49.89322,3.71214,,,0,,,
02:01137,02:01137,"FLAVIGNY LE G. - BEAURAIN  ARRET","",49.88302,3.67522,,,0,,,
02:01138,02:01138,"FLAVIGNY LE G. - RN","",49.88654,3.66266,,,0,,,
02:01141,02:01141,"GUISE - RUE DE VERVINS","",49.89304,3.64469,,,0,,,
02:01142,02:01142,"CHERMIZY A. - ABRI MAIRIE","",49.46959,3.72582,,,0,,,
02:01147,02:01147,"MONTCHALONS - BOIS DE LA TOMBE","",49.50508,3.72044,,,0,,,
02:01153,02:01153,"EPIEDS - COURPOIL","",49.11629,3.4609,,,0,,,
02:01154,02:01154,"FERE EN T. - VILLEMOYENNE","",49.17689,3.5026,,,0,,,
02:01155,02:01155,"LAON - RUE DES MINIMES","",49.57548,3.65163,,,0,,,
02:01158,02:01158,"PARGNY FILAIN - PARGNY FILAIN","",49.46387,3.54665,,,0,,,
02:01159,02:01159,"PARGNY FILAIN - FILAIN PAR D152","",49.45859,3.55745,,,0,,,
02:01163,02:01163,"PONTAVERT - ABRI","",49.40742,3.8191,,,0,,,
02:01167,02:01167,"BARZY S/ M. - FONTAINE CHANDELU","",49.0883,3.54448,,,0,,,
02:01168,02:01168,"COURMONT - ARRET EGLISE","",49.14949,3.57608,,,0,,,
02:01170,02:01170,"SOISSONS - BLD GAMBETTA","",49.37927,3.33244,,,0,,,
02:01171,02:01171,"BILLY S/ A. - X ACY ET VENIZEL","",49.36171,3.40515,,,0,,,
02:01172,02:01172,"MUIZON - PLACE","",49.27597,3.89028,,,0,,,
02:01175,02:01175,"ACY - LE RUPREUX","",49.36496,3.41615,,,0,,,
02:01177,02:01177,"CIRY SALSOGNE - DOM. DES ETANGS","",49.37929,3.47418,,,0,,,
02:01178,02:01178,"LIME - PLACE","",49.32219,3.54865,,,0,,,
02:01181,02:01181,"ACY - VENIZEL X","",49.36175,3.40517,,,0,,,
02:01183,02:01183,"ANY MARTIN R. - LA FOLIE ABRI","",49.90414,4.22254,,,0,,,
02:01184,02:01184,"HIRSON - RUE DE LORRAINE","",49.91725,4.09173,,,0,,,
02:01188,02:01188,"LISLET - LISLET","",49.6858,4.02174,,,0,,,
02:01190,02:01190,"LAPPION - 5 GRAND PLACE","",49.60768,3.96188,,,0,,,
02:01191,02:01191,"LA SELVE - PLACE ABRI","",49.56991,3.99611,,,0,,,
02:01192,02:01192,"SISSONNE - POSTE","",49.57284,3.89101,,,0,,,
02:01198,02:01198,"COUCY LES E. - CENTRE","",49.55259,3.7689,,,0,,,
02:01199,02:01199,"LAON - 62 AV DE GAULLE","",49.56932,3.64299,,,0,,,
02:01202,02:01202,"ESSOMES S/ M. - PLACE FERREOL","",49.02986,3.37509,,,0,,,
02:01204,02:01204,"BONNEIL - VILLAGE","",49.00767,3.3484,,,0,,,
02:01206,02:01206,"NOGENT L A. - PONT NOGENT","",48.9718,3.31914,,,0,,,
02:01207,02:01207,"NOGENT L A. - GARE","",48.96891,3.32195,,,0,,,
02:01210,02:01210,"SAULCHERY - ABRI FACE MAIRIE","",48.97469,3.30786,,,0,,,
02:01214,02:01214,"DOMPTIN - EGLISE","",49.01671,3.27797,,,0,,,
02:01215,02:01215,"COUPRU - ARRET MAIRIE ABRI","",49.03171,3.27199,,,0,,,
02:01218,02:01218,"VEUILLY LA P. - ELOUP","",49.09021,3.2284,,,0,,,
02:01219,02:01219,"ESSOMES S/ M. - BASCON","",49.05005,3.34432,,,0,,,
02:01220,02:01220,"ESSOMES S/ M. - VAUX D 1390","",49.04494,3.34913,,,0,,,
02:01221,02:01221,"ESSOMES S/ M. - MONNEAUX ECOLE","",49.03904,3.35065,,,0,,,
02:01222,02:01222,"VILLENEUVE S/ F - VILLENEUVE SUR","",49.17727,3.47497,,,0,,,
02:01223,02:01223,"EPIEDS - TRUGNY X","",49.09319,3.43704,,,0,,,
02:01225,02:01225,"CHATEAU T. - LA FONTAINE","",49.04422,3.40139,,,0,,,
02:01231,02:01231,"ROZIERES S/ C. - ECUIRY","",49.32289,3.36799,,,0,,,
02:01232,02:01232,"ROZIERES S/ C. - ROUTE DE ROZIERE","",49.32504,3.35955,,,0,,,
02:01234,02:01234,"BRIMONT - PLACE","",49.3403,4.02475,,,0,,,
02:01235,02:01235,"BRIMONT - PONGIVART X","",49.38092,4.03817,,,0,,,
02:01236,02:01236,"COURCY - RN 366","",49.32272,4.00263,,,0,,,
02:01237,02:01237,"BOHAIN EN V. - SAINTE SOPHIE","",49.9827,3.45684,,,0,,,
02:01240,02:01240,"PONT ARCY - ABRI","",49.39379,3.62952,,,0,,,
02:01259,02:01259,"CELLES LES C. - ABRI","",49.01171,3.57102,,,0,,,
02:01260,02:01260,"CELLES LES C. - HERVINE","",49.0072,3.56602,,,0,,,
02:01261,02:01261,"CHARTEVES - ABRI","",49.07526,3.50352,,,0,,,
02:01262,02:01262,"COURTEMONT V. - PLACE","",49.07036,3.55154,,,0,,,
02:01263,02:01263,"COURTEMONT V. - ABRI","",49.07415,3.54242,,,0,,,
02:01277,02:01277,"LUCY LE B. - PLACE ABRI","",49.05721,3.27947,,,0,,,
02:01278,02:01278,"MONTREUIL AUX L - ABRI FACE MAIRI","",49.02181,3.19489,,,0,,,
02:01282,02:01282,"CHATEAU T. - CREDIT AGRICOLE","",49.04469,3.40394,,,0,,,
02:01285,02:01285,"ROMENY S/ M. - PLACE MAIRIE ABRI","",48.97514,3.33361,,,0,,,
02:01286,02:01286,"SAULCHERY - ABRI PLACE","",48.97445,3.30841,,,0,,,
02:01288,02:01288,"MARIGNY EN O. - PLACE DES HALLES","",49.05997,3.22697,,,0,,,
02:01318,02:01318,"PAVANT - MAIRIE ABRI","",48.95369,3.28526,,,0,,,
02:01334,02:01334,"AZY S/ M. - ABRI","",49.00104,3.3658,,,0,,,
02:01342,02:01342,"MARIGNY EN O. - VOIE DU CHATEL","",49.05386,3.24186,,,0,,,
02:01353,02:01353,"ESSOMES S/ M. - ROUVROY ABRI","",49.00761,3.37528,,,0,,,
02:01354,02:01354,"ESSOMES S/ M. - AULNOY ABRI","",49.0165,3.37562,,,0,,,
02:01360,02:01360,"CHARLY S/ M. - POSTE RUE E MORLOT","",48.97659,3.28203,,,0,,,
02:01367,02:01367,"GANDELU - ABRI","",49.09469,3.18533,,,0,,,
02:01369,02:01369,"BUSSIARES - ABRI","",49.09141,3.25655,,,0,,,
02:01371,02:01371,"TORCY EN V. - ABRI","",49.08763,3.2793,,,0,,,
02:01372,02:01372,"MONTHIERS - ABRI PLACE","",49.1027,3.29924,,,0,,,
02:01373,02:01373,"COURCHAMPS - ABRI PLACE","",49.11267,3.26445,,,0,,,
02:01374,02:01374,"HAUTEVESNES - EGLISE ABRI","",49.10938,3.23208,,,0,,,
02:01377,02:01377,"NEUILLY ST F. - PLACE EGLISE","",49.17088,3.25954,,,0,,,
02:01379,02:01379,"GRISOLLES - ABRI","",49.14069,3.35805,,,0,,,
02:01381,02:01381,"ARMENTIERES S. - ABRI","",49.18338,3.38508,,,0,,,
02:01382,02:01382,"NANTEUIL N. D. - EGLISE ABRI","",49.19186,3.40775,,,0,,,
02:01383,02:01383,"BRUYERES S/ F. - ABRI ECOLE","",49.18978,3.4453,,,0,,,
02:01384,02:01384,"COINCY  - PLACE DE LA HALLE","",49.16101,3.42134,,,0,,,
02:01393,02:01393,"MONNES - LAVOIR","",49.14777,3.22027,,,0,,,
02:01394,02:01394,"DAMMARD - PLACE ECOLE","",49.1448,3.19832,,,0,,,
02:01423,02:01423,"EPIEDS - ABRI","",49.10548,3.44396,,,0,,,
02:01429,02:01429,"BEUGNEUX - MONUM. AUX MORTS","",49.23443,3.41438,,,0,,,
02:01432,02:01432,"OULCHY LE C. - ABRI PLACE","",49.20427,3.36808,,,0,,,
02:01464,02:01464,"CHOUY - ABRI","",49.2061,3.24946,,,0,,,
02:01470,02:01470,"VICHEL N. - ABRI","",49.18763,3.28925,,,0,,,
02:01471,02:01471,"MACOGNY - VILLAGE","",49.16544,3.22922,,,0,,,
02:01472,02:01472,"MARIZY ST M. - CROISEMENT","",49.18105,3.22234,,,0,,,
02:01475,02:01475,"PRIEZ - MAIRIE  ABRI","",49.13731,3.26328,,,0,,,
02:01479,02:01479,"ST REMY B. - ABRI PLACE","",49.24083,3.31018,,,0,,,
02:01481,02:01481,"BILLY S/ O. - ABRI","",49.21573,3.30206,,,0,,,
02:01521,02:01521,"BARZY S/ M. - MARCILLY EC. ABRI","",49.08066,3.55953,,,0,,,
02:01522,02:01522,"BARZY S/ M. - ROZAY ABRI","",49.07475,3.56228,,,0,,,
02:01539,02:01539,"GANDELU - DOM. CLIGNON AIRE","",49.09631,3.19264,,,0,,,
02:01541,02:01541,"GANDELU - ECOLE","",49.09415,3.18298,,,0,,,
02:01559,02:01559,"LE CATEAU C. - GARE SNCF","",50.09145,3.53984,,,0,,,
02:01564,02:01564,"LE CATEAU C. - GARE ROUTIERE","",50.10811,3.53954,,,0,,,
02:01569,02:01569,"MURET ET C. - PLACE ABRI","",49.28453,3.41701,,,0,,,
02:01570,02:01570,"MURET ET C. - CROUTTES ABRI","",49.2767,3.42955,,,0,,,
02:01571,02:01571,"NAMPTEUIL /S M. - MAIRIE ABRI","",49.30084,3.42572,,,0,,,
02:01583,02:01583,"CHASSEMY - ABRI PLACE ECOLE","",49.38132,3.50533,,,0,,,
02:01589,02:01589,"COUVRELLES - ANCIENNE ECOLE","",49.33763,3.48814,,,0,,,
02:01593,02:01593,"CHERY C. - ECOLE ABRI","",49.2611,3.61364,,,0,,,
02:01598,02:01598,"BAZOCHES S/ V. - ABRI","",49.30677,3.61809,,,0,,,
02:01599,02:01599,"PAARS - ABRI","",49.32887,3.60119,,,0,,,
02:01600,02:01600,"COURCELLES S/ V - ARRET CARS ABRI","",49.33836,3.57105,,,0,,,
02:01603,02:01603,"CUIRY HOUSSE - ABRI","",49.29505,3.49225,,,0,,,
02:01604,02:01604,"LESGES - MAIRIE","",49.30598,3.50729,,,0,,,
02:01605,02:01605,"BRAINE - SAINTE MARIE","",49.34257,3.53813,,,0,,,
02:01608,02:01608,"CIRY SALSOGNE - CITE BASTIER ABRI","",49.37187,3.47119,,,0,,,
02:01609,02:01609,"CIRY SALSOGNE - ABRI","",49.36071,3.4703,,,0,,,
02:01619,02:01619,"MONT NOTRE D. - ABRI","",49.29322,3.58384,,,0,,,
02:01620,02:01620,"MONT NOTRE D. - GARE","",49.2963,3.57621,,,0,,,
02:01621,02:01621,"VIEL ARCY - ABRI","",49.38141,3.6248,,,0,,,
02:01626,02:01626,"BRENELLE - MAIRIE ABRI","",49.36527,3.54123,,,0,,,
02:01627,02:01627,"VAILLY S/ A. - CES","",49.403,3.52367,,,0,,,
02:01631,02:01631,"BRENY - ABRI PLACE EGLISE","",49.18606,3.35178,,,0,,,
02:01661,02:01661,"DROIZY - PLACE ABRI","",49.27715,3.39318,,,0,,,
02:01670,02:01670,"GLENNES - ABRI","",49.35597,3.71301,,,0,,,
02:01674,02:01674,"VILLERS EN P. - ECOLE","",49.3781,3.67637,,,0,,,
02:01675,02:01675,"LONGUEVAL B. - ECOLE MATERNELLE","",49.35888,3.65401,,,0,,,
02:01686,02:01686,"BEUGNEUX - PLACE ABRI","",49.23466,3.41406,,,0,,,
02:01687,02:01687,"CELLES S/ A. - ABRI","",49.40342,3.48143,,,0,,,
02:01689,02:01689,"NANTEUIL LA F. - MAIRIE ABRI","",49.43534,3.45245,,,0,,,
02:01690,02:01690,"NANTEUIL LA F. - MENNEJEAN FERME","",49.44254,3.46587,,,0,,,
02:01691,02:01691,"SANCY LES C. - EGLISE ABRI","",49.4334,3.47148,,,0,,,
02:01692,02:01692,"AIZY JOUY - COLOMBES FERME","",49.44008,3.49232,,,0,,,
02:01696,02:01696,"ST MARD - EGLISE ABRI","",49.38683,3.58269,,,0,,,
02:01701,02:01701,"VAILLY S/ A. - PL.  BOUVINE ECOLE","",49.408,3.51594,,,0,,,
02:01709,02:01709,"CORCY - ECOLE","",49.25245,3.21109,,,0,,,
02:01711,02:01711,"VILLERS HELON - PLACE ABRI","",49.26571,3.2622,,,0,,,
02:01712,02:01712,"LONGPONT - ECOLE","",49.27326,3.22019,,,0,,,
02:01716,02:01716,"REIMS - PL. ST SYMPHORIEN","",49.25489,4.03577,,,0,,,
02:01718,02:01718,"REIMS - SNCF","",49.25689,4.02285,,,0,,,
02:01719,02:01719,"REIMS - MAGASIN HYPER","",49.28782,4.02401,,,0,,,
02:01720,02:01720,"REIMS - PLACE LUTON","",49.27037,4.02607,,,0,,,
02:01723,02:01723,"REIMS - TUR Pl. D'ERLON","",49.25727,4.02584,,,0,,,
02:01727,02:01727,"VILLERS C. - GARE SNCF","",49.25054,3.09371,,,0,,,
02:01730,02:01730,"CORMICY - CORMICY","",49.3694,3.89288,,,0,,,
02:01731,02:01731,"DORMANS - DORMANS","",49.07928,3.64269,,,0,,,
02:01732,02:01732,"DORMANS - CHASSINS","",49.07824,3.62758,,,0,,,
02:01735,02:01735,"FLEURY - ABRI","",49.2561,3.16015,,,0,,,
02:01750,02:01750,"RETHEUIL - ECOLE","",49.32213,3.00955,,,0,,,
02:01753,02:01753,"MORTEFONTAINE - VAUBERON FERME","",49.34186,3.11105,,,0,,,
02:01756,02:01756,"HARAMONT - ECOLE PLACE ABRI","",49.27851,3.06172,,,0,,,
02:01757,02:01757,"TAILLEFONTAINE - ABRI","",49.31297,3.04454,,,0,,,
02:01758,02:01758,"LARGNY S/ A. - PLACE MAIRIE","",49.26017,3.04253,,,0,,,
02:01761,02:01761,"COEUVRES ET V. - ABRI MAIRIE","",49.33915,3.15501,,,0,,,
02:01762,02:01762,"MONTGOBERT - ABRI","",49.30721,3.14957,,,0,,,
02:01792,02:01792,"ST PIERRE A. - HAUT ABRI","",49.32265,3.18461,,,0,,,
02:01797,02:01797,"LAVERSINE - MAIRIE","",49.35185,3.17049,,,0,,,
02:01798,02:01798,"CUTRY - ABRI","",49.3474,3.17706,,,0,,,
02:01805,02:01805,"AMBLENY - EGLISE","",49.3805,3.184,,,0,,,
02:01848,02:01848,"VASSENY - PLACE ECOLE ABRI","",49.35273,3.48545,,,0,,,
02:01881,02:01881,"FAVEROLLES - PLACE MAIRIE","",49.22519,3.17546,,,0,,,
02:01885,02:01885,"AUBENCHEUL A. - PLACE ABRI","",50.02886,3.26635,,,0,,,
02:01891,02:01891,"PIGNICOURT - PLACE MAIRIE ABRI","",49.41493,4.03069,,,0,,,
02:01893,02:01893,"ORAINVILLE - PLACE ABRI","",49.38064,4.0229,,,0,,,
02:01904,02:01904,"ANIZY LE G. - CES","",49.51179,3.45196,,,0,,,
02:01910,02:01910,"LIZY - PLACE ABRI","",49.51358,3.48203,,,0,,,
02:01911,02:01911,"ANIZY LE G.-EC BELLEUSE JEU PAUME","",49.50547,3.44723,,,0,,,
02:01919,02:01919,"VAUDESSON - CITE","",49.47466,3.48626,,,0,,,
02:01920,02:01920,"VAUDESSON - ABRI","",49.47016,3.48483,,,0,,,
02:01925,02:01925,"CHAVIGNON - EGLISE ABRI","",49.47895,3.52185,,,0,,,
02:01926,02:01926,"PINON - ABRI PLACE CH. DE GAULLE","",49.48791,3.44757,,,0,,,
02:01938,02:01938,"CHEVREGNY - ABRI","",49.47273,3.59073,,,0,,,
02:01939,02:01939,"MONAMPTEUIL - ABRI","",49.47534,3.57301,,,0,,,
02:01941,02:01941,"FILAIN - PLACE FACE MAIRIE","",49.45853,3.55727,,,0,,,
02:01942,02:01942,"PARGNY FILAIN - ABRI","",49.46388,3.54659,,,0,,,
02:01946,02:01946,"SAMOUSSY - MAIRIE","",49.58508,3.73446,,,0,,,
02:01951,02:01951,"BARENTON CEL - ABRI","",49.64282,3.65385,,,0,,,
02:01958,02:01958,"MOLINCHART - ABRI","",49.56107,3.54008,,,0,,,
02:01977,02:01977,"PIERREMANDE - PLACE ABRI","",49.57151,3.24981,,,0,,,
02:01995,02:01995,"LEUILLY /S C. - MONT DE LEUILLY","",49.47319,3.35496,,,0,,,
02:01996,02:01996,"LEUILLY /S C. - BANC DE PIERRE","",49.47503,3.34597,,,0,,,
02:01998,02:01998,"CRECY AU M. - ABRI ROND POINT","",49.4942,3.33286,,,0,,,
02:02007,02:02007,"SIGNY LE P. - EGLISE","",49.90394,4.27913,,,0,,,
02:02008,02:02008,"SIGNY LE P. - FLIGNY ABRI","",49.88101,4.26371,,,0,,,
02:02033,02:02033,"CHIVRES EN L. - PLACE ABRI","",49.63359,3.84184,,,0,,,
02:02037,02:02037,"MONTIGNY LE F. - ECOLE","",49.68885,3.90851,,,0,,,
02:02038,02:02038,"MACHECOURT - ABRI","",49.65382,3.84003,,,0,,,
02:02047,02:02047,"CUIRY LES C. - ABRI","",49.38611,3.7708,,,0,,,
02:02051,02:02051,"CORBENY - MAIRIE ECOLE ABRI","",49.46208,3.82209,,,0,,,
02:02053,02:02053,"AUBIGNY EN L. - HABITATION MEURI.","",49.49609,3.78043,,,0,,,
02:02074,02:02074,"CRAONNELLE - PLACE ABRI","",49.43108,3.7696,,,0,,,
02:02076,02:02076,"VILLE B. LES P. - ABRI MAIRIE","",49.42692,3.85008,,,0,,,
02:02077,02:02077,"LIERVAL - ABRI","",49.48445,3.61577,,,0,,,
02:02080,02:02080,"COLLIGIS C. - CRANDELAIN ABRI","",49.46763,3.63126,,,0,,,
02:02083,02:02083,"PANCY C. - ABRI","",49.47378,3.65399,,,0,,,
02:02085,02:02085,"BIEVRES - MAIRIE ABRI","",49.4933,3.71011,,,0,,,
02:02086,02:02086,"MONTCHALONS - EGLISE","",49.51349,3.72657,,,0,,,
02:02089,02:02089,"MARTIGNY C. - MAIRIE ECOLE","",49.48939,3.67938,,,0,,,
02:02093,02:02093,"AUBIGNY EN L. - MAISON ROUGE","",49.49613,3.78018,,,0,,,
02:02094,02:02094,"MONTHENAULT - ABRI","",49.48605,3.66662,,,0,,,
02:02097,02:02097,"NEUVILLE S/ A. - PLACE ABRI","",49.4663,3.69886,,,0,,,
02:02100,02:02100,"BOUCONVILLE V. - ABRI","",49.4651,3.75527,,,0,,,
02:02102,02:02102,"STE CROIX - EGLISE ABRI","",49.48144,3.78009,,,0,,,
02:02103,02:02103,"BEAURIEUX - BAS ABRI RUE DU PAVE","",49.39006,3.73472,,,0,,,
02:02109,02:02109,"MONCEAU LES L. - ABRI MAIRIE","",49.67123,3.49354,,,0,,,
02:02110,02:02110,"CRECY S/ S. - COLLEGE","",49.69966,3.62367,,,0,,,
02:02112,02:02112,"NOUVION ET C. - ABRI","",49.70306,3.48157,,,0,,,
02:02115,02:02115,"ASSIS S/ S. - ABRI","",49.68704,3.55862,,,0,,,
02:02116,02:02116,"VERNEUIL S/ S. - PLACE ABRI","",49.65018,3.67375,,,0,,,
02:02117,02:02117,"BARENTON S/ S. - ABRI","",49.67223,3.67986,,,0,,,
02:02121,02:02121,"CHALANDRY - ABRI","",49.67781,3.6399,,,0,,,
02:02122,02:02122,"LA FERTE C. - MAIRIE","",49.73647,3.5585,,,0,,,
02:02128,02:02128,"MONTIGNY S/ C. - SALLE DES FETES","",49.71658,3.58558,,,0,,,
02:02129,02:02129,"PARGNY LES B. - ABRI EGLISE","",49.72613,3.62389,,,0,,,
02:02147,02:02147,"LOR - ABRI RUE PRINCIPALE","",49.52992,4.04561,,,0,,,
02:02162,02:02162,"MENNEVILLE - FACE ABRI","",49.41931,4.00695,,,0,,,
02:02163,02:02163,"AGUILCOURT - PLACE ABRI","",49.40619,3.96613,,,0,,,
02:02170,02:02170,"ERLON - SALLE COMMUNALE","",49.72737,3.71472,,,0,,,
02:02194,02:02194,"REMIGNY - ABRI EGLISE","",49.71876,3.29049,,,0,,,
02:02198,02:02198,"MONTESCOURT L.-ABRI 45 AV VICTOIR","",49.73566,3.24743,,,0,,,
02:02199,02:02199,"JUSSY - ABRI 6 AVE DE LA VICTOIRE","",49.72276,3.23313,,,0,,,
02:02200,02:02200,"JUSSY - LA ROTONDE ABRI","",49.71761,3.22658,,,0,,,
02:02210,02:02210,"FRIERES F. - FAILLOUEL ABRI","",49.68769,3.2203,,,0,,,
02:02226,02:02226,"VESLES ET C. - ABRI","",49.67015,3.78508,,,0,,,
02:02228,02:02228,"MISSY LES P. - ECOLE","",49.63289,3.78553,,,0,,,
02:02230,02:02230,"FROIDMONT C. - COHARTILLE ECOLE","",49.67893,3.69531,,,0,,,
02:02231,02:02231,"FROIDMONT C. - FROIDMONT ABRI","",49.68599,3.70822,,,0,,,
02:02234,02:02234,"TOULIS ET A. - ABRI","",49.69987,3.74409,,,0,,,
02:02244,02:02244,"SONS ET R. - FACE 12 RUE MOULIN","",49.76135,3.67485,,,0,,,
02:02245,02:02245,"MARCY /S M. - MAIRIE","",49.73842,3.7377,,,0,,,
02:02247,02:02247,"MARLE - GARE","",49.74695,3.76985,,,0,,,
02:02249,02:02249,"LA NEUVILLE B. - ABRI","",49.71341,3.83981,,,0,,,
02:02253,02:02253,"CILLY - PLACE ABRI","",49.73847,3.83227,,,0,,,
02:02255,02:02255,"MONTIGNY /S M. - ABRI PL VERDUN","",49.74789,3.79121,,,0,,,
02:02259,02:02259,"ST BENIN - SAINT BENIN","",50.07907,3.53386,,,0,,,
02:02260,02:02260,"ST SOUPLET - BAS AF","",50.05301,3.53703,,,0,,,
02:02261,02:02261,"ST SOUPLET - HAUT","",50.05541,3.53115,,,0,,,
02:02277,02:02277,"CHAOURSE - ABRI PLACE","",49.70405,3.99816,,,0,,,
02:02283,02:02283,"NOIRCOURT - RUE DE BERLISE","",49.66484,4.09095,,,0,,,
02:02288,02:02288,"VINCY REUIL E. - VINCY ABRI","",49.7052,4.03144,,,0,,,
02:02290,02:02290,"DIZY LE G. - EGLISE ABRI","",49.62981,4.02161,,,0,,,
02:02294,02:02294,"TAVAUX ET P. - FACE ABRI PLACE","",49.73026,3.90237,,,0,,,
02:02298,02:02298,"MONTIGNY LE F. - ABRI","",49.68907,3.91138,,,0,,,
02:02299,02:02299,"GOUDELANCOURT LES P - ABRI","",49.66914,3.85353,,,0,,,
02:02302,02:02302,"BUCY LES P. - PLACE ABRI","",49.64646,3.90113,,,0,,,
02:02303,02:02303,"CLERMONT LES F. - ABRI","",49.66684,3.93787,,,0,,,
02:02307,02:02307,"MONTLOUE - ABRI PLACE","",49.67339,4.07056,,,0,,,
02:02308,02:02308,"LE THUEL - ECOLE ABRI","",49.64827,4.07598,,,0,,,
02:02312,02:02312,"ANGUILCOURT L. - MAIRIE ECOLE ABR","",49.68985,3.43399,,,0,,,
02:02346,02:02346,"STE GENEVIEVE - ABRI","",49.71967,4.07476,,,0,,,
02:02348,02:02348,"CHERY LES R. - ABRI","",49.71984,4.09104,,,0,,,
02:02356,02:02356,"ST NICOLAS A. - ABRI","",49.59352,3.43132,,,0,,,
02:02361,02:02361,"URCEL - ECOLE ABRI","",49.48949,3.55926,,,0,,,
02:02362,02:02362,"MAUREGNY EN H. - ABRI","",49.5311,3.79392,,,0,,,
02:02363,02:02363,"COUCY LES EPPES - FACE ABRI GARE","",49.55673,3.77375,,,0,,,
02:02364,02:02364,"SISSONNE - COLLEGE","",49.56649,3.8991,,,0,,,
02:02365,02:02365,"COURTRIZY ET F. - PLACE","",49.52029,3.78945,,,0,,,
02:02366,02:02366,"MONTAIGU - EGLISE ABRI","",49.53559,3.82709,,,0,,,
02:02368,02:02368,"GIZY - ABRI ECOLE 25 RD 977","",49.59952,3.77459,,,0,,,
02:02369,02:02369,"GIZY - FACE ABRI 14 RUE DE LA GAR","",49.60813,3.7923,,,0,,,
02:02370,02:02370,"ST ERME O. - ST ERME ABRI","",49.51621,3.84254,,,0,,,
02:02371,02:02371,"ST ERME O. - ECOLE OUTRE ABRI","",49.51096,3.84757,,,0,,,
02:02374,02:02374,"LIESSE - ABRI","",49.60922,3.80325,,,0,,,
02:02375,02:02375,"ST ERME O. - GARE SNCF","",49.52684,3.85697,,,0,,,
02:02377,02:02377,"MONTAIGU - LES AGASSES","",49.54968,3.87617,,,0,,,
02:02381,02:02381,"BONCOURT - ABRI","",49.61628,3.94607,,,0,,,
02:02398,02:02398,"CHAMOUILLE - ECOLE","",49.47142,3.66822,,,0,,,
02:02409,02:02409,"AGNICOURT ET S. - SECHELLES PLACE","",49.71157,3.97727,,,0,,,
02:02418,02:02418,"PRESLES ET T. - ABRI 31 GRANDE RU","",49.51472,3.62941,,,0,,,
02:02419,02:02419,"PRESLES ET T. - MAIRIE","",49.51104,3.6245,,,0,,,
02:02420,02:02420,"PRESLES ET T. - LE CHATEAU","",49.50085,3.62711,,,0,,,
02:02441,02:02441,"MESBRECOURT R. - ABRI 14 GRD RUE","",49.70294,3.54302,,,0,,,
02:02449,02:02449,"CHAMBRY - FERME PUISIEUX","",49.59989,3.67274,,,0,,,
02:02450,02:02450,"CHAMBRY - LA RAPERIE","",49.60752,3.693,,,0,,,
02:02461,02:02461,"SERAIN - PLACE ABRI","",50.02755,3.36704,,,0,,,
02:02478,02:02478,"CROUY - VAUXROT ST LAUREN","",49.39616,3.33321,,,0,,,
02:02480,02:02480,"COUCY LE C. - HOTEL LION ROUGE","",49.51628,3.32156,,,0,,,
02:02481,02:02481,"COUCY LE C. - 50 RUE  FRAMLINGHAM","",49.52402,3.31582,,,0,,,
02:02483,02:02483,"FOLEMBRAY - PONT","",49.54107,3.29447,,,0,,,
02:02484,02:02484,"FOLEMBRAY - CAFE GRAND CERF","",49.54452,3.29054,,,0,,,
02:02485,02:02485,"AUTREVILLE - ABRI","",49.58485,3.23981,,,0,,,
02:02486,02:02486,"SINCENY - ABRI ST ANTOINE","",49.59327,3.23346,,,0,,,
02:02487,02:02487,"SINCENY - ABRI ST LAZARE","",49.59728,3.22902,,,0,,,
02:02488,02:02488,"CHAUNY - PONT CANAL","",49.60909,3.22084,,,0,,,
02:02489,02:02489,"CHAUNY - ARRET PROMENADES","",49.61762,3.21694,,,0,,,
02:02490,02:02490,"CHAUNY - ARRET TERNYNCK","",49.6233,3.21365,,,0,,,
02:02491,02:02491,"VILLEQUIER A. - CIMETIERE","",49.65063,3.20592,,,0,,,
02:02492,02:02492,"VILLEQUIER A. - MAISON ROUGE","",49.66189,3.20714,,,0,,,
02:02493,02:02493,"FLAVY LE M. - ABRI CENTRE","",49.71295,3.19183,,,0,,,
02:02494,02:02494,"MONTESCOURT L -ABRI 48 AV VICTOIR","",49.73524,3.24716,,,0,,,
02:02495,02:02495,"MONTES. LIZ. -ABRI SQUARE SEBLINE","",49.7387,3.25756,,,0,,,
02:02496,02:02496,"ESSIGNY LE G. - ABRI MAIRIE","",49.7756,3.27687,,,0,,,
02:02497,02:02497,"ESSIGNY LE G. - RUE DU MOULIN","",49.77859,3.28039,,,0,,,
02:02498,02:02498,"URVILLERS - ABRI","",49.79032,3.30951,,,0,,,
02:02499,02:02499,"ST QUENTIN - PATTE D'OIE","",49.83171,3.30754,,,0,,,
02:02500,02:02500,"ST QUENTIN - PLACE LAFAYETTE","",49.85096,3.28739,,,0,,,
02:02501,02:02501,"ST QUENTIN - J CURIE LY CONDORCET","",49.85911,3.29362,,,0,,,
02:02502,02:02502,"LEUILLY /S C. - PLACE ECOLE ABRI","",49.47873,3.35801,,,0,,,
02:02503,02:02503,"ST QUENTIN - LA RAMEE R. BELLEVUE","",49.85297,3.29966,,,0,,,
02:02508,02:02508,"FONTAINE N.D. - ABRI MAIRIE","",49.88429,3.43022,,,0,,,
02:02511,02:02511,"AISONVILLE ET B - ABRI MAIRIE","",49.93111,3.51495,,,0,,,
02:02514,02:02514,"FIEULAINE - CALVAIRE","",49.89621,3.44514,,,0,,,
02:02549,02:02549,"CHIVRES VAL - ABRI PLACE ECOLE","",49.39509,3.43533,,,0,,,
02:02565,02:02565,"CHACRISE - ABRI","",49.30539,3.4037,,,0,,,
02:02567,02:02567,"HARTENNES ET T. - ABRI PLACE","",49.26965,3.35356,,,0,,,
02:02576,02:02576,"CHIVY LES E. - PLACE ABRI","",49.52774,3.58463,,,0,,,
02:02600,02:02600,"BOHAIN EN V. - PARKING LE ROYAL","",49.98366,3.45648,,,0,,,
02:02617,02:02617,"VAUX ANDIGNY - PLACE MAIRIE","",50.02374,3.51381,,,0,,,
02:02636,02:02636,"ROUPY - EGLISE RN","",49.81124,3.18469,,,0,,,
02:02637,02:02637,"ETREILLERS - RUE DIETRICH","",49.82501,3.15933,,,0,,,
02:02638,02:02638,"ETREILLERS - 24 AV. DE GAULLE","",49.82883,3.15968,,,0,,,
02:02639,02:02639,"VAUX EN V. - VAUX EN VERM.","",49.82261,3.13969,,,0,,,
02:02641,02:02641,"GERMAINE - FACE ABRI","",49.81171,3.11653,,,0,,,
02:02645,02:02645,"VILLERS ST C. - ABRI RUE L'EGLISE","",49.77941,3.09344,,,0,,,
02:02646,02:02646,"AUBIGNY AUX K. - X ROUTE NATIONAL","",49.77583,3.10754,,,0,,,
02:02647,02:02647,"AUBIGNY AUX K. - ABRI EGLISE","",49.77375,3.11638,,,0,,,
02:02648,02:02648,"DURY - ABRI 9 RUE DE PASSILLON","",49.75105,3.13001,,,0,,,
02:02649,02:02649,"PITHON - ABRI EGLISE","",49.75305,3.0976,,,0,,,
02:02650,02:02650,"HAM - ESTOUILLY","",49.75443,3.07425,,,0,,,
02:02651,02:02651,"HAM - SAINT SULPICE","",49.75138,3.0676,,,0,,,
02:02652,02:02652,"HAM - X EPPEVILLE","",49.74245,3.069,,,0,,,
02:02653,02:02653,"HAM - GARE SNCF","",49.73988,3.07027,,,0,,,
02:02655,02:02655,"ROUPY - MAIRIE","",49.81115,3.18433,,,0,,,
02:02656,02:02656,"ST QUENTIN - X BAUDREUIL METZ","",49.84946,3.29206,,,0,,,
02:02657,02:02657,"ST QUENTIN - PLACE TRICOTTEAUX","",49.84307,3.27761,,,0,,,
02:02658,02:02658,"ETREILLERS - ABRI MAISON RETRAITE","",49.82903,3.16174,,,0,,,
02:02659,02:02659,"ST QUENTIN - GENDARMERIE","",49.84492,3.29526,,,0,,,
02:02660,02:02660,"LANCHY - X RUE ST MEDARD/BEAUVOIS","",49.82684,3.07626,,,0,,,
02:02661,02:02661,"GERMAINE - X CH.GARE FORESTE","",49.8062,3.09886,,,0,,,
02:02662,02:02662,"TREFCON - FACE ABRI","",49.85751,3.09646,,,0,,,
02:02663,02:02663,"CAULAINCOURT - ABRI EGLISE","",49.86414,3.10427,,,0,,,
02:02664,02:02664,"HAM - CES","",49.75193,3.07916,,,0,,,
02:02665,02:02665,"HAM - INST NOTRE DAME BD REPUBLIQ","",49.74951,3.07348,,,0,,,
02:02676,02:02676,"ROUPY - ANCIENNE POSTE RN","",49.81163,3.18581,,,0,,,
02:02681,02:02681,"MOY DE L. - COLLEGE","",49.75298,3.35876,,,0,,,
02:02684,02:02684,"VENDEUIL - ABRI 37 RUE ST JEAN","",49.72134,3.34961,,,0,,,
02:02685,02:02685,"VENDEUIL - ABRI","",49.71514,3.35073,,,0,,,
02:02686,02:02686,"LY FONTAINE - ABRI","",49.73488,3.30745,,,0,,,
02:02687,02:02687,"GIBERCOURT - ABRI","",49.73723,3.28427,,,0,,,
02:02688,02:02688,"HINACOURT - ABRI","",49.74522,3.29553,,,0,,,
02:02689,02:02689,"BENAY - ABRI","",49.76037,3.305,,,0,,,
02:02690,02:02690,"MOY DE L. - FERME LA GUINGUETTE","",49.75883,3.3382,,,0,,,
02:02699,02:02699,"ST QUENTIN - PASSAGE SUPERIEUR","",49.84044,3.29824,,,0,,,
02:02733,02:02733,"DOUCHY - ABRI MONUMENT","",49.79783,3.1352,,,0,,,
02:02734,02:02734,"FLUQUIERES - CENTRE ECOLE ABRI","",49.80371,3.1525,,,0,,,
02:02737,02:02737,"GERMAINE - ABRI","",49.81178,3.11657,,,0,,,
02:02738,02:02738,"FORESTE - ABRI ANCIENNE GARE","",49.80563,3.09882,,,0,,,
02:02741,02:02741,"TREFCON - ABRI","",49.85753,3.09653,,,0,,,
02:02742,02:02742,"SAVY - ABRI MAIRIE","",49.82946,3.19324,,,0,,,
02:02749,02:02749,"BEAUVOIS EN V. - ABRI CENTRE","",49.84012,3.1035,,,0,,,
02:02820,02:02820,"FROIDESTREES - 5 RN2","",49.94916,3.90724,,,0,,,
02:02841,02:02841,"LA FLAMENGRIE - ECOLE CENTRE","",50.00512,3.92121,,,0,,,
02:02856,02:02856,"LA FLAMENGRIE - HAUDROY ECOLE AB","",49.99296,3.94693,,,0,,,
02:02858,02:02858,"ROCQUIGNY - LES HAYETTES ABRI","",50.01816,3.9642,,,0,,,
02:02859,02:02859,"ROCQUIGNY - PLACE ABRI","",50.02381,3.98144,,,0,,,
02:02890,02:02890,"CHATILLON S/ O. - ABRI","",49.7918,3.41892,,,0,,,
02:02892,02:02892,"ESQUEHERIES - PT RUE CROIX VEN","",49.99737,3.77514,,,0,,,
02:02893,02:02893,"LESCHELLES - LES 4 CHEMINS","",49.95117,3.776,,,0,,,
02:02907,02:02907,"WIMY - MAIRIE ABRI","",49.93364,3.99806,,,0,,,
02:02908,02:02908,"ORIGNY EN T. - ABRI MAIRIE","",49.89514,4.01751,,,0,,,
02:02922,02:02922,"LANDOUZY LA V. - PLACE","",49.86192,4.04804,,,0,,,
02:02930,02:02930,"THENAILLES - LA HERSE D'OR","",49.81892,3.93255,,,0,,,
02:02935,02:02935,"HARCIGNY - ABRI PLACE","",49.79671,3.98207,,,0,,,
02:02938,02:02938,"ROZOY S/ S. - SALLE DES FETES","",49.70962,4.1305,,,0,,,
02:02949,02:02949,"SAINS R. - ABRI PLACE MAIRIE","",49.82371,3.70267,,,0,,,
02:02951,02:02951,"VOULPAIX - ABRI","",49.8379,3.83098,,,0,,,
02:02952,02:02952,"LAIGNY - ABRI","",49.85757,3.85392,,,0,,,
02:02953,02:02953,"FONTAINE LES V. - PLACE","",49.85294,3.89689,,,0,,,
02:02962,02:02962,"LESCHELLES - ABRI PLACE","",49.95848,3.76995,,,0,,,
02:02993,02:02993,"ETREUX - ROUTE GARD STADE","",49.99913,3.67734,,,0,,,
02:02994,02:02994,"ETREUX - LE GARD ABRI","",50.00226,3.68372,,,0,,,
02:02999,02:02999,"ETREUX - ABRI RUE CH DE GAULLE","",49.99692,3.66376,,,0,,,
02:03003,02:03003,"BERLANCOURT - MAIRIE","",49.77876,3.75731,,,0,,,
02:03004,02:03004,"LA NEUVILLE H. - MAIRIE","",49.79172,3.72829,,,0,,,
02:03021,02:03021,"WIEGE FATY - ECOLE","",49.88135,3.71774,,,0,,,
02:03025,02:03025,"PLOMION - RUE HEUREUSE ECO","",49.84168,4.03552,,,0,,,
02:03037,02:03037,"THENAILLES - PLACE ABRI","",49.82036,3.93809,,,0,,,
02:03058,02:03058,"FONTAINE LES V. - LYCEE AGRICOLE","",49.83438,3.88374,,,0,,,
02:03063,02:03063,"VOULPAIX - 6 RUE DES FONTAINES","",49.83882,3.83086,,,0,,,
02:03064,02:03064,"VOULPAIX - FACE 6 RUE DES FONTAIN","",49.83874,3.83071,,,0,,,
02:03085,02:03085,"ST MARTIN R. - ABRI EGLISE","",50.04373,3.53934,,,0,,,
02:03095,02:03095,"VINCY REUIL E. - MAGNY ABRI","",49.71687,4.05708,,,0,,,
02:03096,02:03096,"MONTCORNET - CENTRE","",49.69551,4.01526,,,0,,,
02:03097,02:03097,"CHIVRES EN L. - MARAIS","",49.62538,3.83339,,,0,,,
02:03098,02:03098,"LIESSE - ABRI 35 RUE ABBE DUPLOYE","",49.61112,3.80718,,,0,,,
02:03099,02:03099,"ATHIES /S L. - PLACE ABRI","",49.57128,3.68407,,,0,,,
02:03101,02:03101,"NANTEUIL LA F. - LA QUINCY","",49.41855,3.44231,,,0,,,
02:03102,02:03102,"SOISSONS - LTE CES BD PRESLES","",49.37226,3.30529,,,0,,,
02:03128,02:03128,"FORESTE - MAIRIE ECOLE","",49.80744,3.099,,,0,,,
02:03146,02:03146,"RENANSART - MAIRIE","",49.73496,3.4627,,,0,,,
02:03154,02:03154,"VILLERS LE S. - ABRI FACE ECOLE","",49.77735,3.49957,,,0,,,
02:03212,02:03212,"THENELLES - ABRI EGLISE","",49.83226,3.46973,,,0,,,
02:03214,02:03214,"SISSY - ABRI RUE R. LEROY","",49.80289,3.42782,,,0,,,
02:03226,02:03226,"PITHON - FACE ABRI EGLISE","",49.75302,3.09762,,,0,,,
02:03239,02:03239,"ROMERY - ABRI MAIRIE","",49.89712,3.72229,,,0,,,
02:03242,02:03242,"LEME - ABRI ECOLE","",49.83731,3.76319,,,0,,,
02:03266,02:03266,"BERNOT - FACE ABRI","",49.86843,3.49844,,,0,,,
02:03297,02:03297,"FISMES - PL DE L'ESPLANADE","",49.30818,3.67843,,,0,,,
02:03409,02:03409,"LA FERTE M. - GARE SNCF","",49.17944,3.12088,,,0,,,
02:03558,02:03558,"ESQUEHERIES - LA PETITE RUE ABRI","",49.99469,3.77175,,,0,,,
02:03561,02:03561,"VIELS MAISONS - MONTCEL ENGER ABR","",48.91157,3.41118,,,0,,,
02:03606,02:03606,"LA FLAMENGRIE - BAS BUGNY ARRET","",50.00919,3.94858,,,0,,,
02:03624,02:03624,"LE CHARMEL - ECOLE","",49.11375,3.55032,,,0,,,
02:03676,02:03676,"FROIDESTREES  - ABRI 31 RN2","",49.94392,3.90543,,,0,,,
02:03699,02:03699,"LE PT MONTIGNY/MONTIGNY-X D13/D68","",49.90088,3.45774,,,0,,,
02:03739,02:03739,"CHACRISE - RTE VILLEBLAIN","",49.30622,3.38285,,,0,,,
02:03787,02:03787,"LOIZY LES FS/BESNY  - LOIZY LES F","",49.58611,3.59199,,,0,,,
02:03837,02:03837,"BLESMES - LES BRUYERES","",49.03777,3.44872,,,0,,,
02:03854,02:03854,"CREZANCY - ROUTE DE MEZY","",49.04949,3.50911,,,0,,,
02:03855,02:03855,"STE CROIX - CROISEMENT RD1044","",49.4847,3.7931,,,0,,,
02:03856,02:03856,"PIERREPONT EN L - FERME SAVY","",49.64949,3.77761,,,0,,,
02:03870,02:03870,"BESNY ET L. - LA MONTAGNE","",49.60498,3.57268,,,0,,,
02:03935,02:03935,"CANLERS/TRAVECY - CANLERS","",49.6916,3.32466,,,0,,,
02:03941,02:03941,"CHATEAU T. -COUVRECELLE GARE SNCF","",49.03641,3.40941,,,0,,,
02:03945,02:03945,"BRAINE - AV.BECRET TRANSFORMATEUR","",49.33546,3.538,,,0,,,
02:03981,02:03981,"FRESNES EN T. - ABRI","",49.14636,3.55552,,,0,,,
02:03987,02:03987,"CROGIS /ESSOMES SUR MARNE - ARRET","",49.02486,3.35094,,,0,,,
02:04005,02:04005,"CELLES S/ A. - COUVAILLES","",49.40928,3.49427,,,0,,,
02:04010,02:04010,"PRESLES ET T. - LAVOIR","",49.51547,3.63143,,,0,,,
02:04013,02:04013,"BEAUTOR - CIMETIERE","",49.66273,3.34859,,,0,,,
02:04018,02:04018,"SOISSONS - MOLIERE","",49.37355,3.33291,,,0,,,
02:04020,02:04020,"VICHEL N. - GARE DE NEUILLY","",49.18663,3.27067,,,0,,,
02:04025,02:04025,"FERE EN T - ARRIVEE 32 RUE BRIAND","",49.20111,3.51397,,,0,,,
02:04027,02:04027,"VILLENEUVE S/ F - PLACE CLAUDEL","",49.17804,3.47421,,,0,,,
02:04029,02:04029,"VILLIERS ST D. - ECOLES","",48.99461,3.26686,,,0,,,
02:04076,02:04076,"ROUVROY / ESSOMES - ROUVROY","",49.00775,3.3752,,,0,,,
02:04078,02:04078,"AULNOIS / ESSOMES  - AULNOIS","",49.01405,3.37551,,,0,,,
02:04080,02:04080,"NEUVE MAISON - 26 RUE DE VERDUN","",49.92846,4.03616,,,0,,,
02:04081,02:04081,"NEUVE-MAISON - ABRI","",49.93091,4.03107,,,0,,,
02:04085,02:04085,"COYOLLES - ABRI","",49.23419,3.04271,,,0,,,
02:04094,02:04094,"NOUVION ET C - CATILLON DU TEMPLE","",49.71084,3.52108,,,0,,,
02:04100,02:04100,"MONTIGNY S/ C. - FACE ABRI CUGNOT","",49.71577,3.58426,,,0,,,
02:04102,02:04102,"ROZOY S/ S. - PLACE NEUVILLE","",49.70883,4.12344,,,0,,,
02:04107,02:04107,"BOHAIN-22 RUE DE VAUX INTERMARCHE","",49.98587,3.46079,,,0,,,
02:04108,02:04108,"BOHAIN-24 RUE DEGUISE CROCAFFAIRE","",49.98478,3.45995,,,0,,,
02:04139,02:04139,"COUVRELLES - LA GARENNE","",49.34228,3.49114,,,0,,,
02:04167,02:04167,"CRECY AU M-BETHANCOURT ABRI X CRY","",49.49062,3.3352,,,0,,,
02:04173,02:04173,"VERVINS - PL  ANCIENS COMBATTANTS","",49.83403,3.90945,,,0,,,
02:04184,02:04184,"VIVIERES - ABRI CIMETIERE","",49.29923,3.10615,,,0,,,
02:04197,02:04197,"DALLON - MAISON ROUGE","",49.83983,3.22279,,,0,,,
02:04198,02:04198,"LESGES - MONT DE SOISSONS","",49.32221,3.44736,,,0,,,
02:04200,02:04200,"COURTEMONT V. - VARENNES ABRI","",49.07248,3.53875,,,0,,,
02:04201,02:04201,"SAINT AGNAN - SACONNET","",49.0187,3.5898,,,0,,,
02:04203,02:04203,"ETREUX - LE GARD RUE INDUSTRIE","",50.00222,3.68394,,,0,,,
02:04204,02:04204,"ST QUENTIN - LA RAMEE RUE DUNANT","",49.85349,3.30096,,,0,,,
02:04205,02:04205,"ST QUENTIN - LYCEE JEAN BOUIN","",49.85102,3.30855,,,0,,,
02:04208,02:04208,"ST QUENTIN -LA FAYETTE ROND POINT","",49.85096,3.28742,,,0,,,
02:04222,02:04222,"MONTAIGU - CITE GARENNES","",49.53358,3.86433,,,0,,,
02:04226,02:04226,"LE HERIE LA V - ABRI RUE DU PUITS","",49.8225,3.64549,,,0,,,
02:04227,02:04227,"LE HERIE LA V - EGLISE","",49.82295,3.64538,,,0,,,
02:04233,02:04233,"SAINS R.  - ECOLE PRIMAIRE","",49.82613,3.70558,,,0,,,
02:04236,02:04236,"MONCEAU LE F. - ABRI MAIRIE","",49.76896,3.61594,,,0,,,
02:04237,02:04237,"BRUMETZ - MAIRIE ABRI","",49.10175,3.16102,,,0,,,
02:04239,02:04239,"OIGNY EN V- X D1380/R.BLANCHE","",49.21983,3.13706,,,0,,,
02:04241,02:04241,"FLAVIGNY LE G. -JUSSY EQUARISSAGE","",49.88616,3.65564,,,0,,,
02:04242,02:04242,"JUSSY - 2 RUE DE FLAVY","",49.71725,3.22597,,,0,,,
02:04245,02:04245,"MONCEAU LE F. - FACE FAUCOUZY ABR","",49.79171,3.63627,,,0,,,
02:04246,02:04246,"WASSIGNY - RUE DU GENERAL GIRAUD","",50.01275,3.5993,,,0,,,
02:04252,02:04252,"PASSY SUR MARNE - EGLISE ABRI","",49.06066,3.57153,,,0,,,
02:04257,02:04257,"LA MALMAISON - ABRI EGLISE","",49.5155,3.98004,,,0,,,
02:04261,02:04261,"NANTEUIL LA F. - MONUMENT AUX MOR","",49.43489,3.45191,,,0,,,
02:04262,02:04262,"BERRY AU B. - PARKING ZONE ACTIVI","",49.39645,3.90323,,,0,,,
02:04268,02:04268,"CHATEAU T.  - ARRET LHERMITTE","",49.05055,3.4015,,,0,,,
02:04270,02:04270,"VESLUD -2 rue du Puits BINOT","",49.53405,3.73288,,,0,,,
02:04271,02:04271,"ST ERME O. - PLACE DES GALOPINS","",49.52034,3.8515,,,0,,,
02:04272,02:04272,"SOISSONS - JJ ROUSSEAU","",49.37712,3.3216,,,0,,,
02:04278,02:04278,"PETIT VERLY- PLACE EMILE MONFRONT","",49.97206,3.55748,,,0,,,
02:04290,02:04290,"OULCHY LE C. - GARE SNCF","",49.18781,3.35256,,,0,,,
02:04292,02:04292,"FISMES - GARE SNCF","",49.3101,3.68207,,,0,,,
02:04303,02:04303,"CONDE EN B. - X RUES COL & CHAUNY","",49.00575,3.55431,,,0,,,
02:04328,02:04328,"CHATEAU T. - BLANCHARD","",49.06083,3.39487,,,0,,,
02:04371,02:04371,"TRELOU/ M - HAMEAU DE COURCELLES","",49.06596,3.59253,,,0,,,
02:04378,02:04378,"VILLERS C.  - OREE DU BOIS","",49.24109,3.0835,,,0,,,
02:04379,02:04379,"HIRSON - DEPOT RTA","",49.93129,4.07296,,,0,,,
02:04381,02:04381,"CHAUDARDES - EGLISE","",49.39172,3.79058,,,0,,,
02:04390,02:04390,"CHACRISE - ROUTE DE VILLEBLAIN","",49.30622,3.38285,,,0,,,
02:04396,02:04396,"MERVAL - X RUE DU BASSIN","",49.34773,3.69614,,,0,,,
02:04403,02:04403,"BILLY S/ O. - FACE ABRI","",49.2158,3.30203,,,0,,,
02:04404,02:04404,"CHASSEMY - PLACE RUE DE LA PLAINE","",49.38145,3.50546,,,0,,,
02:04405,02:04405,"CHASSEMY - FACE PLACE RUE PLAINE","",49.38149,3.5055,,,0,,,
02:04416,02:04416,"CHEVRESIS M-FACE ABRI 15 RUE VIEF","",49.75181,3.56797,,,0,,,
02:04422,02:04422,"CHEVRESIS M.- ABRI 15 RUE VIEFVIL","",49.75182,3.56784,,,0,,,
02:04447,02:04447,"TUPIGNY - FACE CAFE","",49.95735,3.60633,,,0,,,
02:04450,02:04450,"HAM - RUE JULES VERNE","",49.74301,3.09511,,,0,,,
02:04451,02:04451,"MARLE - 56 AVENUE CH. DE GAULLE","",49.74293,3.77243,,,0,,,
02:04452,02:04452,"MARLE - 11 AVENUE CARNOT","",49.74736,3.77161,,,0,,,
02:04453,02:04453,"MARLE - 61 AVENUE CH. DE GAULLE","",49.74295,3.77222,,,0,,,
02:04454,02:04454,"MARLE - 18 AVENUE CARNOT","",49.74737,3.77222,,,0,,,
02:04462,02:04462,"BEAURIEUX-BAS POTEAU RTA RUE PAVE","",49.39015,3.73487,,,0,,,
02:04463,02:04463,"BERRY AU BAC - MAIRIE","",49.40331,3.8996,,,0,,,
02:04464,02:04464,"SOISSONS - ARRET DUMAS 1","",49.38718,3.32341,,,0,,,
02:04465,02:04465,"SOISSONS - ARRET DUMAS 2","",49.38736,3.32472,,,0,,,
02:04466,02:04466,"SOISSONS - ARRET JARDIN HORTI 1","",49.3758,3.32909,,,0,,,
02:04467,02:04467,"SOISSONS - ARRET JARDIN HORTI 2","",49.37597,3.32921,,,0,,,
02:04468,02:04468,"SOISSONS - BARA","",49.38439,3.32431,,,0,,,
02:04469,02:04469,"SOISSONS - MANTOUE","",49.38128,3.32437,,,0,,,
02:04470,02:04470,"URVILLERS - FACE LOT. CORNET D'OR","",49.79934,3.32181,,,0,,,
02:04471,02:04471,"URVILLERS - LOT. CORNET D'OR","",49.79933,3.32176,,,0,,,
02:04473,02:04473,"PARGNY LES BOIS - FACE ABRI EGLIS","",49.7261,3.62397,,,0,,,
02:04476,02:04476,"TAVAUX ET P. - FACE MAIRIE","",49.73066,3.90309,,,0,,,
02:04477,02:04477,"TAVAUX ET P. - MAIRIE","",49.73072,3.9031,,,0,,,
02:04478,02:04478,"PARGNY LES BOIS - 2 RUE DE CRECY","",49.72593,3.62229,,,0,,,
02:04479,02:04479,"VILLERS LE SEC -  ECOLE","",49.77741,3.49995,,,0,,,
02:04483,02:04483,"LEME - FACE ABRI ECOLE","",49.83742,3.76318,,,0,,,
02:04484,02:04484,"LEME  - ABRI 42 RUE DE LA NATION","",49.84641,3.7687,,,0,,,
02:04485,02:04485,"LEME - FACE ABRI 39 RUE LA NATION","",49.84631,3.76871,,,0,,,
02:04491,02:04491,"MAAST ET V. - ABRI X D83/D831","",49.28152,3.45001,,,0,,,
02:04493,02:04493,"VILLEMONTOIRE - RTE DE VILLEMONTO","",49.29175,3.34289,,,0,,,
02:04497,02:04497,"ST QUENTIN - 18 BD V. HUGO","",49.84286,3.28092,,,0,,,
02:04505,02:04505,"BOHAIN EN V.  - 15 RUE FAGARD","",49.98728,3.4538,,,0,,,
02:04517,02:04517,"LESQUIELLES ST G. - BAS MONUMENT","",49.92883,3.62352,,,0,,,
02:04522,02:04522,"SAVY - 30 RUE DE LA LIBERTE","",49.83122,3.19799,,,0,,,
02:04526,02:04526,"BRAINE - X KENNEDY MOREAU","",49.34514,3.52787,,,0,,,
02:04527,02:04527,"VENDEUIL - AVENUE P. CARETTE","",49.71116,3.34999,,,0,,,
02:04529,02:04529,"REMIGNY - X RUE FONTAINE/BRUYOTTE","",49.7182,3.28541,,,0,,,
02:04530,02:04530,"MOY DE L. - CALVAIRE","",49.752,3.35751,,,0,,,
02:04533,02:04533,"ETAMPES S/M.-BAS FACE 21 P.SEMARD","",49.03627,3.4149,,,0,,,
02:04534,02:04534,"ETAMPES S/ M. - FACE ABRI MAIRIE","",49.03373,3.41956,,,0,,,
02:04535,02:04535,"JUSSY - ABRI 5 AVE DE LA VICTOIRE","",49.72318,3.2334,,,0,,,
02:04536,02:04536,"MARLE - SUCRERIE","",49.74271,3.76477,,,0,,,
02:04537,02:04537,"RIBEMONT - PLACE ST GERMAIN","",49.79835,3.464,,,0,,,
02:04540,02:04540,"NOUVION ET C.-PT BUCY D35 MAIRIE","",49.68982,3.48557,,,0,,,
02:04541,02:04541,"NOUVION ET C.-PT BUCY D35 FACE MA","",49.68975,3.48557,,,0,,,
02:04544,02:04544,"FROIDESTREES - 1 RUE DU 8 MAI 45","",49.93796,3.90247,,,0,,,
02:04547,02:04547,"SISSONNE - INSTITUT MEDICO PROFES","",49.56398,3.89226,,,0,,,
02:04548,02:04548,"SERY LES M. - 32 RUE DE RIBEMONT","",49.77572,3.42324,,,0,,,
02:04549,02:04549,"RIBEMONT - 25 RUE G. ST HILAIRE","",49.79403,3.45702,,,0,,,
02:04550,02:04550,"BERNOT - CALVAIRE RUE D'HAUTEVILL","",49.86989,3.50633,,,0,,,
02:04551,02:04551,"VADENCOURT - FACE ABRI EGLISE","",49.92858,3.57762,,,0,,,
02:04552,02:04552,"SERY LES M.- FACE 32 RUE RIBEMONT","",49.77572,3.42324,,,0,,,
02:04553,02:04553,"VENDEUIL - FACE ABRI 30 ST JEAN","",49.72132,3.34971,,,0,,,
02:04555,02:04555,"HARLY - 1233 RUE DE GUISE","",49.84089,3.31711,,,0,,,
02:04556,02:04556,"AMIGNY ROUY - X D7 ET D53","",49.60442,3.30566,,,0,,,
02:04557,02:04557,"AMIGNY ROUY - X D7 ET VC31","",49.60387,3.29664,,,0,,,
02:04558,02:04558,"AMIGNY ROUY - LA BUTTE","",49.60294,3.2827,,,0,,,
02:04559,02:04559,"SUZY - 39 RUE DE SEBACOURT","",49.54864,3.46071,,,0,,,
02:04560,02:04560,"SINCENY - FACE CARREFOUR MARKET","",49.59882,3.22792,,,0,,,
02:04561,02:04561,"GROUGIS - ABRI MAIRIE","",49.94305,3.53302,,,0,,,
02:04562,02:04562,"GROUGIS - FACE ABRI MAIRIE","",49.9429,3.53295,,,0,,,
02:04563,02:04563,"GROUGIS - ABRI 41 RUE DE VERDUN","",49.94318,3.52273,,,0,,,
02:04564,02:04564,"GROUGIS - FACE ABRI 43 RUE VERDUN","",49.94309,3.52264,,,0,,,
02:04565,02:04565,"JAULGONNE - LOT. LES ACACIAS","",49.08403,3.52932,,,0,,,
02:04566,02:04566,"VERDILLY - STATION","",49.07811,3.42763,,,0,,,
02:04567,02:04567,"WASSIGNY - 43 RUE MAILLARD","",50.01593,3.59358,,,0,,,
02:04570,02:04570,"SAINTE PREUVE - N°1 JARDINS","",49.61846,3.90763,,,0,,,
02:04573,02:04573,"VILLIERS ST D. - LES GRESILLONS","",48.98689,3.26788,,,0,,,
02:04574,02:04574,"CHARLY S/ M. - PETIT VAL","",48.97914,3.28136,,,0,,,
02:04575,02:04575,"CHARLY S/ M. - GENDARMERIE","",48.97703,3.29099,,,0,,,
02:04594,02:04594,"SAVY - FACE 30 RUE DE LA LIBERTE","",49.83126,3.19787,,,0,,,
02:04595,02:04595,"ST QUENTIN - 250 RUE DR CORDIER","",49.84163,3.25996,,,0,,,
02:04596,02:04596,"ST QUENTIN - FACE 250 RUE DR CORD","",49.84158,3.26005,,,0,,,
02:04597,02:04597,"MENNEVRET - 40TER RUE DE VERDUN","",49.98108,3.56372,,,0,,,
02:04598,02:04598,"MENNEVRET - 67 RUE DE VERDUN","",49.98115,3.56367,,,0,,,
02:04611,02:04611,"MOY DE L. - FACE FERME GUINGUETTE","",49.75864,3.33864,,,0,,,
02:04792,02:04792,"CHEVRESIS M.- MAISON DE RETRAITE","",49.75464,3.57212,,,0,,,
02:04836,02:04836,"ORGEVAL - 3 RUE DU CALVAIRE","",49.50669,3.70264,,,0,,,
02:04915,02:04915,"LAON - 71 AV.  GENERAL DE GAULLE","",49.56927,3.64319,,,0,,,
02:04920,02:04920,"MESBRECOURT R.-126 RUE FABRIQUE","",49.70257,3.56354,,,0,,,
02:04921,02:04921,"MESBRECOURT R.- 2 RUE LA FABRIQUE","",49.70264,3.56323,,,0,,,
02:04922,02:04922,"RIBEMONT -FACE LUCY ABRI","",49.80859,3.47641,,,0,,,
02:04931,02:04931,"PARFONDRU - MAIRIE","",49.52789,3.71105,,,0,,,
02:04932,02:04932,"PARFONDRU - EGLISE ABRI","",49.52753,3.71167,,,0,,,
02:04939,02:04939,"VILLEQUIER A. - PLACE","",49.65827,3.20597,,,0,,,
02:04942,02:04942,"TORCY EN V.  - FACE ABRI","",49.08768,3.27925,,,0,,,
02:04943,02:04943,"ETREPILLY - 2 RTE DE CHAT THIERRY","",49.0845,3.34038,,,0,,,
02:04945,02:04945,"NEUVE MAISON - 23 RUE DE VERDUN","",49.92837,4.0362,,,0,,,
02:04952,02:04952,"SOISSONS-GARE SNCF 81 AV G GAULLE","",49.36996,3.3372,,,0,,,
02:04953,02:04953,"SOISSONS-GARE SNCF 52 AV G GAULLE","",49.36992,3.33722,,,0,,,
02:04954,02:04954,"BONNEIL - COOPERATIVE AGRICOLE","",49.00858,3.35339,,,0,,,
02:04955,02:04955,"CLERMONT LES F. - FACE ABRI","",49.6668,3.93823,,,0,,,
02:04956,02:04956,"GOUDELANCOURT LES P. - FACE ABRI","",49.66921,3.85354,,,0,,,
02:04959,02:04959,"COINCY - FACE ABRI MAIRIE","",49.16067,3.4212,,,0,,,
02:04960,02:04960,"CHOUY - FACE ABRI","",49.20606,3.24931,,,0,,,
02:04964,02:04964,"REMIES - ABRI RUE BON PUITS","",49.67825,3.52088,,,0,,,
02:04965,02:04965,"ROCOURT ST M - FACE MAIRIE","",49.152,3.38741,,,0,,,
02:05004,02:05004,"LIESSE -FACE ABRI 32 RUE DUPLOYE","",49.61119,3.80754,,,0,,,
02:05051,02:05051,"MERFY - RUE DU NORD DEVANT EGLISE","",49.29559,3.94464,,,0,,,
02:05053,02:05053,"GIZY - ABRI 15 RUE DE LA GARE","",49.60817,3.79209,,,0,,,
02:05055,02:05055,"GIZY - FACE ABRI ECOLE 25 RD 977","",49.59938,3.77439,,,0,,,
02:05058,02:05058,"MESBRECOURT R-FACE ABRI 14 GD RUE","",49.70276,3.54304,,,0,,,
02:05064,02:05064,"VOULPAIX - FACE ABRI","",49.83797,3.83095,,,0,,,
02:05065,02:05065,"ORIGNY STE BENOITE - COURJUMELLES","",49.82274,3.54951,,,0,,,
02:05069,02:05069,"ESSOMES S/M. - N°1 LE THIOLET","",49.03918,3.31179,,,0,,,
02:05070,02:05070,"ESSOMES S/M. - N°2 LE THIOLET","",49.03947,3.31283,,,0,,,
﻿stop_id,stop_code,stop_name,stop_desc,stop_lat,stop_lon,zone_id,stop_url,location_type,stop_timezone,wheelchair_boarding
6000601,,"Place Dupuis",,49.3149055,2.5943041,,,0,,
6000602,,"Drouart",,49.3173848,2.6025449,,,0,,
6000697,,"Drouart",,49.3174654,2.6029404,,,0,,
6000603,,"LES-AGEUX - Bois de Feuillette",,49.3271505,2.6034265,,,0,,
6000698,,"LES-AGEUX - Bois de Feuillette",,49.3271987,2.6033643,,,0,,
6000604,,"Chemin Vert",,49.312511,2.6026762,,,0,,
6000699,,"Chemin Vert",,49.3127468,2.6034225,,,0,,
6001002,,"Cimetière",,49.2046206,2.1258211,,,0,,
6001099,,"Cimetière",,49.2045244,2.1254723,,,0,,
6001204,,"Parking Orsol",,49.2606159,2.1649273,,,0,,
6001299,,"Parking Orsol",,49.2604394,2.1651248,,,0,,
6001301,,"L'éguillon",,49.3156362,2.5008002,,,0,,
6001397,,"L'éguillon",,49.3156602,2.500838,,,0,,
6001302,,"La Lignière",,49.3199802,2.5094906,,,0,,
6001398,,"La Lignière",,49.3200076,2.5095179,,,0,,
6001303,,"Place",,49.3114084,2.5059393,,,0,,
6001399,,"Place",,49.3114015,2.5059286,,,0,,
6001394,,"Le Pont",,49.3206189,2.4974421,,,0,,
6001304,,"Le Pont",,49.3206155,2.4974421,,,0,,
6001305,,"La prêle",,49.321377,2.502388,,,0,,
6001395,,"La prêle",,49.3213702,2.5023829,,,0,,
6001306,,"Stade",,49.3155816,2.5099188,,,0,,
6001396,,"Stade",,49.3155816,2.5099188,,,0,,
6002201,,"Place Gallé",,49.2246367,2.5113183,,,0,,
6002202,,"Normandie",,49.2224861,2.5036489,,,0,,
6002299,,"Normandie",,49.2224656,2.5036326,,,0,,
6002801,,"Château",,49.2296873,2.5581024,,,0,,
6002898,,"Château",,49.2297261,2.5580012,,,0,,
6002802,,"Eglise",,49.2293805,2.5495172,,,0,,
6002899,,"Eglise",,49.2294519,2.5496284,,,0,,
6003301,,"Ecole",,49.1930611,2.5110724,,,0,,
6003302,,"Mairie",,49.1938674,2.536963,,,0,,
6003397,,"Mairie",,49.1938791,2.5369363,,,0,,
6003303,,"AVILLY-ST-LEONARD - Pl. Centre (StNico)",,49.1939741,2.5367318,,,0,,
6003398,,"AVILLY-ST-LEONARD - Pl. Centre (StNico)",,49.1940343,2.5367111,,,0,,
6003304,,"Roi d'Agobert",,49.1941443,2.5128865,,,0,,
6003399,,"Roi d'Agobert",,49.1941545,2.5128758,,,0,,
6004201,,"Allée des Fresnes",,49.337428,2.4552083,,,0,,
6004297,,"Allée des Fresnes",,49.3373733,2.4550794,,,0,,
6004202,,"Béthencourt",,49.347787,2.4697991,,,0,,
6004296,,"Béthencourt",,49.3477675,2.4697492,,,0,,
6004204,,"Louveaucourt",,49.3413553,2.4556749,,,0,,
6004298,,"Louveaucourt",,49.3413895,2.4557927,,,0,,
6004206,,"Sénécourt",,49.3492238,2.4475708,,,0,,
6004299,,"Sénécourt",,49.349247,2.4476127,,,0,,
6004207,,"Médiathèque",,49.3473047,2.4566838,,,0,,
6004501,,"Place",,49.2220456,2.6673117,,,0,,
6004502,,"Le pommelotier",,49.2158791,2.6802991,,,0,,
6004599,,"Le pommelotier",,49.215875,2.680331,,,0,,
6004704,,"Centre",,49.1719914,2.7342603,,,0,,
6004799,,"Centre",,49.1719712,2.7342388,,,0,,
6005001,,"Ecole",,49.3427726,2.6231411,,,0,,
6005002,,"Mairie",,49.3428551,2.6219938,,,0,,
6005099,,"Mairie",,49.3428384,2.6219148,,,0,,
6005601,,"7 Rue du Puits Triquet",,49.2967678,2.5563299,,,0,,
6005602,,"8 Rue du Puits Triquet",,49.2968396,2.5562601,,,0,,
6005603,,"Château",,49.2978914,2.564909,,,0,,
6006001,,"Centre",,49.1931266,2.2188413,,,0,,
6006099,,"Centre",,49.1930992,2.2187446,,,0,,
6006701,,"BETHISY ST MARTIN - PLACE",,49.2948588,2.8146257,,,0,,
6006802,,"Clos Cadot",,49.3041547,2.7962136,,,0,,
6006896,,"Clos Cadot",,49.3045304,2.7927266,,,0,,
6006803,,"BETHISY ST PIERRE - PLACE",,49.2987725,2.8002635,,,0,,
6006899,,"BETHISY ST PIERRE - PLACE",,49.2987418,2.8002033,,,0,,
6007401,,"Le Bosquet",,49.2256259,2.3506498,,,0,,
6007499,,"Le Bosquet",,49.2255386,2.3506478,,,0,,
6007402,,"Le Bourg",,49.2221838,2.3561472,,,0,,
6007497,,"Le Bourg",,49.2222669,2.3559298,,,0,,
6007403,,"Les Gorres",,49.2182287,2.3619851,,,0,,
6007498,,"Les Gorres",,49.2182818,2.3619349,,,0,,
6008601,,"Enclos",,49.1660175,2.3594555,,,0,,
6008697,,"Enclos",,49.1660559,2.3595164,,,0,,
6008602,,"Moulin",,49.1668508,2.3548077,,,0,,
6008698,,"Moulin",,49.1668508,2.3548077,,,0,,
6008603,,"Roseraie",,49.1650168,2.354061,,,0,,
6008699,,"Roseraie",,49.1652837,2.3545253,,,0,,
6008701,,"Ecole",,49.1803539,2.6712516,,,0,,
6008799,,"Ecole",,49.180391,2.6713021,,,0,,
6008803,,"Centre",,49.1975833,2.2095016,,,0,,
6008898,,"Centre",,49.1975707,2.2087242,,,0,,
6008899,,"Courcelles",,49.1930275,2.1835779,,,0,,
6008805,,"Courcelles",,49.1929729,2.1835164,,,0,,
6010001,,"La Grange des Champs",,49.2576333,2.686151,,,0,,
6010002,,"Place",,49.2562034,2.680348,,,0,,
6010099,,"Place",,49.2562034,2.680348,,,0,,
6010201,,"Belle Visée",,49.3013095,2.5281908,,,0,,
6010297,,"Belle Visée",,49.301286,2.5280141,,,0,,
6010202,,"Collège René CASSIN",,49.3064002,2.5406573,,,0,,
6010203,,"Mairie",,49.3045267,2.5420538,,,0,,
6010298,,"Mairie",,49.3049743,2.5429916,,,0,,
6010204,,"Monument",,49.3027615,2.5386313,,,0,,
6010299,,"Monument",,49.302703,2.5386031,,,0,,
6010798,,"BLV Gare routière Scolaire",,49.3627499,2.4211271,,,0,,
6010797,,"BLV Gare routière Scolaire",,49.3619669,2.4218309,,,0,,
6013499,,"Soutraine Kuom",,49.3176915,2.4404904,,,0,,
6013404,,"Soutraine Kuom",,49.3177082,2.440503,,,0,,
6013502,,"BONVILLIERS",,49.3076798,2.2177638,,,0,,
6013596,,"BONVILLIERS",,49.3076334,2.217823,,,0,,
6013504,,"Centre",,49.301721,2.2478415,,,0,,
6013597,,"Centre",,49.301459,2.247814,,,0,,
6013506,,"Château Rouge",,49.2976237,2.2616002,,,0,,
6013598,,"Château Rouge",,49.2976071,2.261496,,,0,,
6013509,,"Fercourt",,49.3102165,2.2453842,,,0,,
6013599,,"Fercourt",,49.3102165,2.2453842,,,0,,
6013801,,"Centre",,49.2215401,2.6084553,,,0,,
6013898,,"Centre",,49.2216494,2.6084538,,,0,,
6013802,,"BALAGNY - Le hameau",,49.2239358,2.6369092,,,0,,
6013899,,"BALAGNY - Le hameau",,49.2239358,2.6369092,,,0,,
6013901,,"Collège Jacques Prévert",,49.1690582,2.2546531,,,0,,
6013902,,"Marinière",,49.1702747,2.2430593,,,0,,
6013998,,"Marinière",,49.1701234,2.2432899,,,0,,
6013903,,"Mesnil Saint Martin",,49.1824817,2.2345697,,,0,,
6013999,,"Mesnil Saint Martin",,49.1824817,2.2345748,,,0,,
6014101,,"Gare",,49.1882635,2.459741,,,0,,
6014102,,"Avenue de Bourbon",,49.1805283,2.4610231,,,0,,
6014103,,"Collège des Bourgognes",,49.2025118,2.4678294,,,0,,
6014104,,"N Dame-Musée Cheval-Château",,49.1945223,2.4785653,,,0,,
6014193,,"N Dame-Musée Cheval-Château",,49.1944799,2.4786969,,,0,,
6014105,,"CHANTILLY - Clinique des jockeys",,49.1801809,2.4568215,,,0,,
6014194,,"CHANTILLY - Clinique des Jockeys",,49.1802236,2.4568579,,,0,,
6014106,,"Eglise",,49.1768847,2.4579245,,,0,,
6014196,,"Lefebure",,49.2018043,2.460916,,,0,,
6014107,,"Lefebure",,49.2012716,2.4606584,,,0,,
6014108,,"Lycée Jean Rostand",,49.181843,2.4633809,,,0,,
6014109,,"Mairie",,49.192534,2.4646329,,,0,,
6014197,,"Mairie",,49.1924923,2.4646515,,,0,,
6014110,,"Office du tourisme",,49.1943755,2.4718303,,,0,,
6014198,,"Office du tourisme",,49.1943685,2.4719211,,,0,,
6014111,,"Place Omer Wallon",,49.1940452,2.4656634,,,0,,
6014199,,"Place Omer Wallon",,49.1946873,2.4656258,,,0,,
6014112,,"Quai de la canardière",,49.195483,2.4638987,,,0,,
6014195,,"QUAI DE LA CANARDIERE",,49.1954932,2.4640058,,,0,,
6014201,,"Centre",,49.1287308,2.5337582,,,0,,
6014293,,"Centre",,49.1287163,2.5337696,,,0,,
6014202,,"Cimetière",,49.1253856,2.5292219,,,0,,
6014294,,"Cimetière",,49.1253111,2.5290582,,,0,,
6014203,,"Glorie",,49.1261076,2.5319812,,,0,,
6014295,,"Glorie",,49.1260403,2.5319656,,,0,,
6014204,,"Gymnase",,49.1214346,2.5265171,,,0,,
6014296,,"Gymnase",,49.1213996,2.526597,,,0,,
6014205,,"Collège",,49.1230516,2.5258388,,,0,,
6014297,,"Collège",,49.1232469,2.5261124,,,0,,
6014206,,"Mairie",,49.131674,2.5339474,,,0,,
6014298,,"Mairie",,49.1315319,2.5339478,,,0,,
6014207,,"Nouvelle cité",,49.124127,2.5333543,,,0,,
6014299,,"Nouvelle cité",,49.1239158,2.5333855,,,0,,
6014208,,"Col. du Servois",,49.1229147,2.5258113,,,0,,
6014801,,"Ecole",,49.1098836,2.8506182,,,0,,
6014898,,"Ecole",,49.1098836,2.8506182,,,0,,
6014803,,"Le Bosquet",,49.1050649,2.8418685,,,0,,
6014897,,"Le Bosquet",,49.1050342,2.8419097,,,0,,
6014804,,"Sennevieres",,49.1227039,2.8536389,,,0,,
6014899,,"Sennevieres",,49.1227039,2.8536389,,,0,,
6014901,,"Rue de Beauvais",,49.3462389,2.673407,,,0,,
6014999,,"Rue de Beauvais",,49.3462696,2.6739677,,,0,,
6014902,,"Centre",,49.3469552,2.679999,,,0,,
6014998,,"Centre",,49.3469888,2.6802473,,,0,,
6015401,,"Griffon",,49.3133481,2.5268233,,,0,,
6015495,,"Griffon",,49.3133208,2.5268177,,,0,,
6015402,,"Guerlin",,49.3206222,2.535379,,,0,,
6015499,,"Guerlin",,49.3205666,2.535058,,,0,,
6015403,,"Lotissement",,49.3163173,2.5255437,,,0,,
6015496,,"Lotissement",,49.3160545,2.5255461,,,0,,
6015404,,"Place",,49.3193094,2.5270306,,,0,,
6015497,,"Place",,49.3192926,2.5264324,,,0,,
6015405,,"Rue verte",,49.3198941,2.5393886,,,0,,
6015498,,"Rue verte",,49.3200423,2.5391213,,,0,,
6015501,,"Gare",,49.2716664,2.3605267,,,0,,
6015502,,"Le Tillet HLM",,49.261047,2.3387048,,,0,,
6015599,,"Le Tillet HLM",,49.2611132,2.3388378,,,0,,
6015503,,"Le Tillet Place",,49.2579722,2.3266919,,,0,,
6015597,,"Le Tillet Place",,49.257892,2.3276995,,,0,,
6015598,,"Mairie",,49.275263,2.3582676,,,0,,
6015504,,"Mairie",,49.2752977,2.3582676,,,0,,
6015505,,"Maysel",,49.2695485,2.357152,,,0,,
6015595,,"Maysel",,49.269517,2.3571369,,,0,,
6015506,,"Station",,49.2706484,2.3599,,,0,,
6015596,,"Station",,49.2706743,2.3599186,,,0,,
6015796,,"Croix de Creil",,49.368884,2.4177111,,,0,,
6015797,,"Croix de Creil",,49.3685995,2.4178792,,,0,,
6015703,,"La Croix de Creil",,49.3689247,2.4177274,,,0,,
6015707,,"Centre",,49.3761346,2.4134408,,,0,,
6015798,,"Centre",,49.3761551,2.413453,,,0,,
6015722,,"Les Sables",,49.3857311,2.400974,,,0,,
6015799,,"Les Sables",,49.3857516,2.4009898,,,0,,
6015731,,"Gare SNCF",,49.3849506,2.417917,,,0,,
6015907,,"Gare SNCF",,49.421873,2.8245284,,,0,,
6015999,,"St Jacques",,49.4167879,2.8267843,,,0,,
6015923,,"Gare SNCF",,49.4220202,2.824491,,,0,,
6015998,,"La Fontaine Arrêt TIC",,49.4132875,2.8221886,,,0,,
6015925,,"ROYALLIEU",,49.3951396,2.8035454,,,0,,
6015926,,"ST FIACRE",,49.4069661,2.8127655,,,0,,
6015997,,"ST FIACRE",,49.406973,2.8129429,,,0,,
6016501,,"Centre",,49.3062935,2.1221658,,,0,,
6017001,,"Cimetière",,49.1995982,2.5408868,,,0,,
6017098,,"Cimetière",,49.1995435,2.540569,,,0,,
6017002,,"Mairie",,49.1984746,2.5346874,,,0,,
6017099,,"Mairie",,49.1984571,2.5345288,,,0,,
6017094,,"Maison Neuve",,49.2006876,2.5390196,,,0,,
6017003,,"Maison Neuve",,49.2006711,2.5389629,,,0,,
6017004,,"Place",,49.1984431,2.534483,,,0,,
6017095,,"Place",,49.1983824,2.5345424,,,0,,
6017005,,"Les 4 Vents",,49.1999115,2.5320368,,,0,,
6017093,,"Les 4 Vents",,49.1998496,2.5317232,,,0,,
6017006,,"Saint Nicolas Centre",,49.2020334,2.550776,,,0,,
6017096,,"Saint Nicolas Centre",,49.2025556,2.5507699,,,0,,
6017097,,"Saint-Nicolas",,49.2034811,2.5502658,,,0,,
6017007,,"Saint-Nicolas",,49.2035289,2.5503087,,,0,,
6017201,,"Ronciers",,49.1398335,2.4647038,,,0,,
6017299,,"Ronciers",,49.1398511,2.4646875,,,0,,
6017202,,"Place Blanche",,49.14271,2.4735032,,,0,,
6017203,,"Crochet de Coye",,49.1390086,2.4846527,,,0,,
6017294,,"Crochet de Coye",,49.13901,2.4847001,,,0,,
6017204,,"Bruyères",,49.1391875,2.4690921,,,0,,
6017293,,"Bruyères",,49.1391895,2.4690596,,,0,,
6017297,,"Centre",,49.1433109,2.4689304,,,0,,
6017205,,"Centre",,49.1433115,2.468989,,,0,,
6017206,,"Demeure de France",,49.1412602,2.4613594,,,0,,
6017298,,"Demeure de France",,49.1412338,2.4613198,,,0,,
6017295,,"Ménagerie",,49.1406734,2.4748192,,,0,,
6017207,,"Ménagerie",,49.1407153,2.4750916,,,0,,
6017208,,"Les Prunus",,49.1429452,2.4633399,,,0,,
6017301,,"Parvillée",,49.255756,2.4046036,,,0,,
6017399,,"Parvillée",,49.2557536,2.4047387,,,0,,
6017501,,"Carnot",,49.2626495,2.472588,,,0,,
6017593,,"Carnot",,49.2626991,2.4727478,,,0,,
6017502,,"Base Aérienne",,49.2442915,2.506814,,,0,,
6017584,,"Base Aérienne",,49.2443052,2.5068783,,,0,,
6017582,,"Becquerel",,49.2520677,2.4804747,,,0,,
6017503,,"Becquerel",,49.2525185,2.4801312,,,0,,
6017504,,"B. Fouchère",,49.258484,2.4770699,,,0,,
6017583,,"B. Fouchère",,49.2584915,2.4769072,,,0,,
6017505,,"B. Pascal",,49.2546051,2.487148,,,0,,
6017592,,"B. Pascal",,49.2547417,2.4870728,,,0,,
6017586,,"Branly",,49.2533108,2.4870728,,,0,,
6017506,,"Branly",,49.2531024,2.4870299,,,0,,
6017507,,"Champrelle",,49.2532766,2.474933,,,0,,
6017585,,"Champrelle",,49.253403,2.4734739,,,0,,
6017587,,"Faienceries",,49.2597792,2.4744521,,,0,,
6017509,,"Gambetta",,49.2632707,2.4739707,,,0,,
6017588,,"Gambetta",,49.2633382,2.473967,,,0,,
6017510,,"Gare SNCF",,49.2640579,2.4700852,,,0,,
6017511,,"Gabriel Havez",,49.2486389,2.4690155,,,0,,
6017589,,"Gabriel Havez",,49.2485774,2.468941,,,0,,
6017512,,"Gare Routière",,49.261505,2.4682516,,,0,,
6017513,,"Mégret",,49.2514974,2.4764459,,,0,,
6017590,,"Mégret",,49.2516135,2.4764459,,,0,,
6017514,,"College Michelet",,49.2628763,2.4809275,,,0,,
6017591,,"College Michelet",,49.2628343,2.4806093,,,0,,
6017594,,"Plaine de Jeux",,49.2480822,2.4728043,,,0,,
6017515,,"Plaine de Jeux",,49.2480871,2.4727967,,,0,,
6017516,,"Puvis de Chavannes",,49.2561282,2.488092,,,0,,
6017517,,"F. Roosevelt",,49.2522316,2.4655454,,,0,,
6017595,,"F. Roosevelt",,49.2522437,2.4650933,,,0,,
6017518,,"Tremblay",,49.2706282,2.4950253,,,0,,
6017596,,"Tremblay",,49.2707303,2.495203,,,0,,
6017519,,"Bas des Tufs",,49.2578681,2.4807323,,,0,,
6017597,,"Bas des Tufs",,49.2579639,2.4807568,,,0,,
6017520,,"Valois",,49.2521394,2.4832964,,,0,,
6017598,,"Valois",,49.2521496,2.4832964,,,0,,
6017521,,"Marcel Philippe",,49.260643,2.4788437,,,0,,
6017599,,"Marcel Philippe",,49.2606532,2.4788224,,,0,,
6018501,,"Centre",,49.2135386,2.3204059,,,0,,
6018599,,"Centre",,49.2133132,2.3208132,,,0,,
6019699,,"LE-DÉLUGE - Ecole",,49.2972391,2.109466,,,0,,
6019601,,"LE-DÉLUGE - Ecole",,49.297246,2.1094552,,,0,,
6019604,,"RESSONS-L'ABBAYE - Ecole",,49.3019005,2.0892164,,,0,,
6019701,,"Monument aux morts",,49.2317947,2.2507645,,,0,,
6019798,,"Monument aux morts",,49.2318325,2.2509287,,,0,,
6019799,,"La Fosse Saint Clair",,49.2494505,2.2573945,,,0,,
6019702,,"La Fosse Saint Clair",,49.2494233,2.257311,,,0,,
6021201,,"Calvaire",,49.2314828,2.2993842,,,0,,
6021297,,"Calvaire",,49.2313985,2.2991579,,,0,,
6021202,,"Centre",,49.2337364,2.3035949,,,0,,
6021298,,"Centre",,49.2337782,2.3035825,,,0,,
6021203,,"Mairie",,49.2345095,2.3061066,,,0,,
6021299,,"Mairie",,49.2343929,2.3062381,,,0,,
6021301,,"Château",,49.1251763,2.6950108,,,0,,
6021398,,"Château",,49.1252515,2.6947519,,,0,,
6021306,,"Centre",,49.1255821,2.6936637,,,0,,
6021397,,"Centre",,49.1256073,2.6934726,,,0,,
6021307,,"ERMENONVILLE - Mer de Sable",,49.145079,2.6806997,,,0,,
6021399,,"ERMENONVILLE - Mer de Sable",,49.1452099,2.6805871,,,0,,
6022603,,"Eglise",,49.0898755,2.7044623,,,0,,
6022699,,"Eglise",,49.0900623,2.7039556,,,0,,
6023801,,"Mairie",,49.2596154,2.583779,,,0,,
6023898,,"Mairie",,49.2591887,2.5839156,,,0,,
6023897,,"Parc",,49.270294,2.589328,,,0,,
6023802,,"Parc",,49.2705092,2.5892328,,,0,,
6023803,,"Roquesable",,49.264543,2.5845337,,,0,,
6023899,,"Roquesable",,49.2645635,2.5845443,,,0,,
6024101,,"Mairie",,49.172238,2.6839945,,,0,,
6024198,,"Mairie",,49.1722355,2.6840022,,,0,,
6024102,,"Centre",,49.169798,2.6852179,,,0,,
6024199,,"Centre",,49.169798,2.6852179,,,0,,
6024195,,"Chaalis",,49.1707167,2.684435,,,0,,
6024103,,"Chaalis",,49.1706279,2.6845317,,,0,,
6024104,,"Ecole",,49.1680211,2.689262,,,0,,
6024196,,"Ecole",,49.1679939,2.689247,,,0,,
6024105,,"Fourcheret",,49.1918835,2.6982215,,,0,,
6024197,,"Fourcheret",,49.1918357,2.6982215,,,0,,
6024901,,"Centre",,49.2754272,2.3153452,,,0,,
6024998,,"Centre",,49.2753484,2.3151324,,,0,,
6024902,,"Eglise",,49.2754508,2.3154808,,,0,,
6024999,,"Eglise",,49.2754747,2.3154321,,,0,,
6025901,,"Eglise",,49.2014456,2.2707446,,,0,,
6025998,,"Eglise",,49.2009137,2.2701005,,,0,,
6025902,,"Lamberval",,49.2028493,2.2750441,,,0,,
6025999,,"Lamberval",,49.2028723,2.275156,,,0,,
6028201,,"Centre AQUALIS",,49.1895441,2.434474,,,0,,
6028287,,"Centre AQUALIS",,49.1895441,2.434474,,,0,,
6028202,,"Domaine des Aigles",,49.1893284,2.4534199,,,0,,
6028203,,"Basses Garennes",,49.1864842,2.4080619,,,0,,
6028289,,"Basses Garennes",,49.1864842,2.4080619,,,0,,
6028284,,"Bois des Bouleaux",,49.1838204,2.4067799,,,0,,
6028204,,"Bois des Bouleaux",,49.1838204,2.4067799,,,0,,
6028205,,"Chaumont",,49.1974808,2.417292,,,0,,
6028285,,"Chaumont",,49.1974716,2.4174859,,,0,,
6028206,,"Parc du Chauffour",,49.1885333,2.4411018,,,0,,
6028290,,"Parc du Chauffour",,49.1885858,2.4406798,,,0,,
6028299,,"La Chaussée",,49.1994761,2.4320929,,,0,,
6028207,,"La Chaussée",,49.1994209,2.4318309,,,0,,
6028298,,"Colliau",,49.1864364,2.4182299,,,0,,
6028208,,"Colliau",,49.1864364,2.4182299,,,0,,
6028209,,"College S.Delaunay",,49.1895303,2.4102558,,,0,,
6028291,,"College S.Delaunay",,49.1895942,2.4102335,,,0,,
6028210,,"L'Etrier",,49.1878163,2.4327848,,,0,,
6028292,,"L'Etrier",,49.1878228,2.4323931,,,0,,
6028211,,"Gambetta",,49.1879871,2.4238962,,,0,,
6028293,,"Gambetta",,49.1880244,2.4240697,,,0,,
6028212,,"Mairie",,49.1881388,2.4158597,,,0,,
6028294,,"Mairie",,49.1880733,2.4157757,,,0,,
6028213,,"Parc du Manoir",,49.1889362,2.4454968,,,0,,
6028295,,"Parc du Manoir",,49.1891787,2.446716,,,0,,
6028214,,"République",,49.1850225,2.4149328,,,0,,
6028286,,"République",,49.1849667,2.4149273,,,0,,
6028215,,"Toutevoie",,49.198116,2.406111,,,0,,
6028296,,"Toutevoie",,49.198116,2.406111,,,0,,
6028297,,"Vieux Chemin",,49.1892306,2.4536114,,,0,,
6028402,,"Mairie",,49.3713774,2.6533019,,,0,,
